,Neighbourhood,Neighbourhood Latitude,Neighbourhood Longitude,Venue,Venue Latitude,Venue Longitude,Venue Category
0,Helmholtzplatz,52.543686938798174,13.418908042164817,Goldhahn & Sampson,52.54219963187534,13.420430615306818,Gourmet Shop
1,Helmholtzplatz,52.543686938798174,13.418908042164817,Salt n Bone,52.54404686487403,13.42010231458886,Gastropub
2,Helmholtzplatz,52.543686938798174,13.418908042164817,Hum vegan cuisine,52.54365117699298,13.41649562512907,Vietnamese Restaurant
3,Helmholtzplatz,52.543686938798174,13.418908042164817,Wohnzimmer,52.543396390064636,13.419287620066626,Café
4,Helmholtzplatz,52.543686938798174,13.418908042164817,Kajumi,52.544094,13.421894,Coffee Shop
5,Helmholtzplatz,52.543686938798174,13.418908042164817,Victoria met Albert,52.54275011124199,13.420867785230792,Boutique
6,Helmholtzplatz,52.543686938798174,13.418908042164817,Pakolat,52.54381372971663,13.416153352998345,Coffee Shop
7,Helmholtzplatz,52.543686938798174,13.418908042164817,La Cave Prenzlauer Berg,52.542771,13.420996,Winery
8,Helmholtzplatz,52.543686938798174,13.418908042164817,Pastificio Tosatti,52.5435,13.419621,Italian Restaurant
9,Helmholtzplatz,52.543686938798174,13.418908042164817,Misirlou Bar,52.54240865670678,13.420687500355816,Bar
10,Helmholtzplatz,52.543686938798174,13.418908042164817,häppies,52.541465603578764,13.419871504217673,Dumpling Restaurant
11,Helmholtzplatz,52.543686938798174,13.418908042164817,höschen,52.542260157110334,13.420776128768921,Bar
12,Helmholtzplatz,52.543686938798174,13.418908042164817,Ushido,52.54230345760376,13.416069667398542,Japanese Restaurant
13,Helmholtzplatz,52.543686938798174,13.418908042164817,Lecker Song,52.544249,13.42011,Dim Sum Restaurant
14,Helmholtzplatz,52.543686938798174,13.418908042164817,Bekarei,52.54435463910769,13.422632217407227,Bakery
15,Helmholtzplatz,52.543686938798174,13.418908042164817,Helmholtzplatz,52.54308556459545,13.418769836425781,Plaza
16,Helmholtzplatz,52.543686938798174,13.418908042164817,Sophak Thai Massage,52.543561918676424,13.41491217809899,Massage Studio
17,Helmholtzplatz,52.543686938798174,13.418908042164817,Becketts Kopf,52.54548368774649,13.417096063531707,Cocktail Bar
18,Helmholtzplatz,52.543686938798174,13.418908042164817,Zia Maria,52.54595611949305,13.41762881944121,Pizza Place
19,Helmholtzplatz,52.543686938798174,13.418908042164817,kalaa yoga,52.54453418887381,13.417488524190679,Yoga Studio
20,Helmholtzplatz,52.543686938798174,13.418908042164817,Café Liebling,52.54209866252614,13.420647382736206,Café
21,Helmholtzplatz,52.543686938798174,13.418908042164817,Suzette,52.543356818522035,13.414827973512976,Creperie
22,Helmholtzplatz,52.543686938798174,13.418908042164817,Sasaya,52.544309738166525,13.418225103137415,Japanese Restaurant
23,Helmholtzplatz,52.543686938798174,13.418908042164817,Fräulein Dickes,52.545261669938675,13.421142883356502,Café
24,Helmholtzplatz,52.543686938798174,13.418908042164817,Supalife Kiosk,52.54383307038778,13.416111208205077,Art Gallery
25,Helmholtzplatz,52.543686938798174,13.418908042164817,Caravaggi,52.542869,13.420122,Italian Restaurant
26,Helmholtzplatz,52.543686938798174,13.418908042164817,Speiches Rock- & Blueskneipe,52.54373308591658,13.416300511883453,Jazz Club
27,Helmholtzplatz,52.543686938798174,13.418908042164817,Poké Pelelina,52.546249985045755,13.418940967025895,Hawaiian Restaurant
28,Helmholtzplatz,52.543686938798174,13.418908042164817,Spielplatz Helmholtzplatz,52.54311396378938,13.418469696449945,Playground
29,Helmholtzplatz,52.543686938798174,13.418908042164817,Moloko,52.54382,13.417691,Bar
30,Wiesbadener Straße,52.472878229595345,13.311817404157852,Rüdesheimer Platz,52.47315435847986,13.315327852934189,Park
31,Wiesbadener Straße,52.472878229595345,13.311817404157852,Pastis,52.47248347894102,13.31447785184562,French Restaurant
32,Wiesbadener Straße,52.472878229595345,13.311817404157852,La Vucciria,52.473234651065404,13.314112640316582,Italian Restaurant
33,Wiesbadener Straße,52.472878229595345,13.311817404157852,Lotte am Platz,52.473191999250005,13.316996424945875,Café
34,Wiesbadener Straße,52.472878229595345,13.311817404157852,Pizza & Pasta,52.472552,13.314599,Italian Restaurant
35,Wiesbadener Straße,52.472878229595345,13.311817404157852,Rheingauer Weinbrunnen,52.473154,13.314758,Wine Bar
36,Wiesbadener Straße,52.472878229595345,13.311817404157852,Prometheus,52.47422683610944,13.30821802571668,Greek Restaurant
37,Wiesbadener Straße,52.472878229595345,13.311817404157852,Gasthaus Landauer,52.4729169011418,13.317237031669004,German Restaurant
38,Wiesbadener Straße,52.472878229595345,13.311817404157852,REWE,52.473011831137576,13.307444165924949,Supermarket
39,Wiesbadener Straße,52.472878229595345,13.311817404157852,BIO COMPANY,52.473566712212275,13.314498037018925,Organic Grocery
40,Wiesbadener Straße,52.472878229595345,13.311817404157852,REWE,52.46849371292595,13.311755399197182,Supermarket
41,Schmöckwitz/Karolinenhof/Rauchfangswerder,52.3750750830254,13.654119710979346,Restaurant Strandlust,52.37630658096029,13.657328133279583,German Restaurant
42,Schmöckwitz/Karolinenhof/Rauchfangswerder,52.3750750830254,13.654119710979346,H Alt-Schmöckwitz,52.37532408559151,13.649439811706543,Tram Station
43,Schmöckwitz/Karolinenhof/Rauchfangswerder,52.3750750830254,13.654119710979346,Villa Toscana,52.37603896628201,13.648759979138934,Italian Restaurant
44,Schmöckwitz/Karolinenhof/Rauchfangswerder,52.3750750830254,13.654119710979346,Wassersportzentrum der HU,52.373572121635306,13.648960488338858,Harbor / Marina
45,Müggelheim,52.407020037638546,13.683590917846193,Waldfriedhof Müggelheim,52.406765,13.676315,Memorial Site
46,Biesdorf,52.50738304786509,13.559359810542356,Schloss Biesdorf,52.509887382703425,13.557697534561157,Palace
47,Biesdorf,52.50738304786509,13.559359810542356,Kaufland,52.507097297380184,13.557968723139052,Supermarket
48,Biesdorf,52.50738304786509,13.559359810542356,Müller,52.506005564165356,13.558594026940812,Drugstore
49,Biesdorf,52.50738304786509,13.559359810542356,Rossini II,52.5050486198376,13.561988924299433,Italian Restaurant
50,Biesdorf,52.50738304786509,13.559359810542356,Frostkauf - Backfabrik,52.507596030267045,13.558146657968575,Food & Drink Shop
51,Biesdorf,52.50738304786509,13.559359810542356,BIO COMPANY Biesdorf Center,52.5063164,13.5590091,Supermarket
52,Biesdorf,52.50738304786509,13.559359810542356,POLIMEDICA Apotheke Biesdorf-Süd,52.50551061473603,13.558468954808447,Pharmacy
53,Biesdorf,52.50738304786509,13.559359810542356,U Elsterwerdaer Platz,52.5053032011428,13.56088399887085,Metro Station
54,Biesdorf,52.50738304786509,13.559359810542356,Netto Filiale,52.50445041,13.5611684,Supermarket
55,Biesdorf,52.50738304786509,13.559359810542356,Biesdorfer Parkbühne,52.511794052468275,13.559049367904663,Outdoor Event Space
56,Nord 1,52.63019440066242,13.29697561495205,Adriatic,52.633738964951554,13.293905450887888,Restaurant
57,Nord 1,52.63019440066242,13.29697561495205,Motor-Lit.de,52.62894,13.29726,Used Bookstore
58,Nord 1,52.63019440066242,13.29697561495205,Motor-Lit.de,52.62894,13.29726,Bookstore
59,Nord 1,52.63019440066242,13.29697561495205,ALDI NORD,52.626928,13.301743,Supermarket
60,West 5,52.59273149698239,13.259967472092558,Dicke Marie,52.593555977072754,13.264950513839722,Tree
61,West 5,52.59273149698239,13.259967472092558,TSC,52.5918651181363,13.262314979224785,Athletics & Sports
62,West 5,52.59273149698239,13.259967472092558,SeePavillon am Tegeler See,52.59064003762309,13.261203336385112,Café
63,West 5,52.59273149698239,13.259967472092558,Waldhütte am See,52.593682551123344,13.264052324656161,German Restaurant
64,Frankfurter Allee Nord,52.51888115659835,13.461706121976444,Verzuckert Berlin,52.517848628388876,13.462878300139064,Dessert Shop
65,Frankfurter Allee Nord,52.51888115659835,13.461706121976444,Casablanca,52.51689,13.46182,Falafel Restaurant
66,Frankfurter Allee Nord,52.51888115659835,13.461706121976444,Bye Bye Cavaliere,52.51750752743603,13.461312563313543,Pizza Place
67,Frankfurter Allee Nord,52.51888115659835,13.461706121976444,Forckenbeckplatz,52.51951130206744,13.460569381713867,Park
68,Frankfurter Allee Nord,52.51888115659835,13.461706121976444,Schreiner's,52.517601702799226,13.464775085449217,Café
69,Frankfurter Allee Nord,52.51888115659835,13.461706121976444,Vineria del Este,52.51842991112723,13.464266512934937,Tapas Restaurant
70,Frankfurter Allee Nord,52.51888115659835,13.461706121976444,Eisklecks,52.520607781896196,13.458861677028661,Ice Cream Shop
71,Frankfurter Allee Nord,52.51888115659835,13.461706121976444,Minimal Bar,52.51644,13.463944,Bar
72,Frankfurter Allee Nord,52.51888115659835,13.461706121976444,Salami Social Club,52.51501293065886,13.46347680510007,Pizza Place
73,Frankfurter Allee Nord,52.51888115659835,13.461706121976444,Der Laden,52.518169129699395,13.465642805648091,Food & Drink Shop
74,Frankfurter Allee Nord,52.51888115659835,13.461706121976444,Cafe Della Peppina,52.51766917578809,13.465702872435877,Italian Restaurant
75,Frankfurter Allee Nord,52.51888115659835,13.461706121976444,Mama Maria's,52.51537,13.461211,Pizza Place
76,Frankfurter Allee Nord,52.51888115659835,13.461706121976444,Papaleo Pizzeria,52.517953,13.467741,Pizza Place
77,Frankfurter Allee Nord,52.51888115659835,13.461706121976444,Sindibad,52.51513303005888,13.462939589679683,Falafel Restaurant
78,Frankfurter Allee Nord,52.51888115659835,13.461706121976444,Tapiocaria,52.51627309503224,13.464839458465576,Brazilian Restaurant
79,Frankfurter Allee Nord,52.51888115659835,13.461706121976444,Drachenspielplatz,52.51729206785169,13.466868951001157,Playground
80,Frankfurter Allee Nord,52.51888115659835,13.461706121976444,Mom's Creation,52.515564,13.460521,Vegetarian / Vegan Restaurant
81,Frankfurter Allee Nord,52.51888115659835,13.461706121976444,Karl-Marx-Allee,52.516888859397504,13.457794218021077,Road
82,Frankfurter Allee Nord,52.51888115659835,13.461706121976444,Holiday Bistro,52.517031206249314,13.461190230021318,Doner Restaurant
83,Frankfurter Allee Nord,52.51888115659835,13.461706121976444,Fischladen,52.51700621578385,13.461707225465307,Dive Bar
84,Frankfurter Allee Nord,52.51888115659835,13.461706121976444,Engler's Unikat,52.51906005641643,13.466539909002941,German Restaurant
85,Frankfurter Allee Nord,52.51888115659835,13.461706121976444,Die Kaffee Freunde (Die Kaffeefreunde),52.51770415249472,13.468495898671334,Café
86,Frankfurter Allee Nord,52.51888115659835,13.461706121976444,Eure Kneipe,52.519063,13.45513,Pub
87,Frankfurter Allee Nord,52.51888115659835,13.461706121976444,Freibeuter,52.51616139024366,13.463535717728673,Bar
88,Frankfurter Allee Nord,52.51888115659835,13.461706121976444,La Despensa,52.515922,13.46479,South American Restaurant
89,Frankfurter Allee Nord,52.51888115659835,13.461706121976444,Kasiske,52.51727002623143,13.466361158623348,Pub
90,Frankfurter Allee Nord,52.51888115659835,13.461706121976444,Kiez Cuisine,52.51769808454843,13.465780001018523,Vegetarian / Vegan Restaurant
91,Frankfurter Allee Nord,52.51888115659835,13.461706121976444,Hermann-Blankenstein-Park,52.52196591288184,13.460826873779297,Park
92,Frankfurter Allee Nord,52.51888115659835,13.461706121976444,Il Tinello,52.51841861878021,13.466121923248616,Italian Restaurant
93,Frankfurter Allee Nord,52.51888115659835,13.461706121976444,Die Garbe,52.51495841870727,13.462492383659528,Bistro
94,Kaulsdorf,52.50272924156119,13.588133968967245,Rossmann,52.504147397223726,13.590366553465323,Drugstore
95,Kaulsdorf,52.50272924156119,13.588133968967245,REWE,52.50460626907316,13.590326833240283,Supermarket
96,Kaulsdorf,52.50272924156119,13.588133968967245,Lidl,52.50427455383461,13.589249113574624,Supermarket
97,Kaulsdorf,52.50272924156119,13.588133968967245,Hotel B1,52.50319778313932,13.581995304665258,Hotel
98,Kaulsdorf,52.50272924156119,13.588133968967245,ALDI NORD,52.50539462823964,13.590205907821655,Supermarket
99,Kaulsdorf,52.50272924156119,13.588133968967245,ABEX EFG BÄR & OLLENROTH,52.505405137512,13.584073415869,Electronics Store
100,Kaulsdorf,52.50272924156119,13.588133968967245,Bushaltestelle Alt-Kaulsdorf/Chemnitzer Straße,52.503799,13.58111,Bus Stop
101,nördliche Luisenstadt,52.50241269179749,13.427924597650428,Lerchen und Eulen,52.5022542722616,13.430717849669797,Bar
102,nördliche Luisenstadt,52.50241269179749,13.427924597650428,Heidenpeters,52.502048793920636,13.43130168201405,Brewery
103,nördliche Luisenstadt,52.50241269179749,13.427924597650428,Markthalle Neun,52.502144327910116,13.431606978315234,Food Court
104,nördliche Luisenstadt,52.50241269179749,13.427924597650428,Der Goldene Hahn,52.502325186017565,13.430560827255249,Italian Restaurant
105,nördliche Luisenstadt,52.50241269179749,13.427924597650428,Villa Gallina,52.502289339789044,13.430748390001538,Wine Bar
106,nördliche Luisenstadt,52.50241269179749,13.427924597650428,Sironi - Il Pane di Milano,52.50225857529403,13.431454417132157,Bakery
107,nördliche Luisenstadt,52.50241269179749,13.427924597650428,La Piadina,52.50427481000133,13.426255556377754,Italian Restaurant
108,nördliche Luisenstadt,52.50241269179749,13.427924597650428,Mani in pasta,52.502166846709024,13.431716511155079,Trattoria/Osteria
109,nördliche Luisenstadt,52.50241269179749,13.427924597650428,Big Stuff Smoked BBQ,52.502122392297785,13.431800746997471,BBQ Joint
110,nördliche Luisenstadt,52.50241269179749,13.427924597650428,Rosa Canina,52.50214320176283,13.43181912685543,Ice Cream Shop
111,nördliche Luisenstadt,52.50241269179749,13.427924597650428,Klas Bäckerei,52.50036027321407,13.427356903569757,Bakery
112,nördliche Luisenstadt,52.50241269179749,13.427924597650428,TeamEscape Berlin,52.50322086396874,13.426420912775308,Theme Park
113,nördliche Luisenstadt,52.50241269179749,13.427924597650428,Bone Berlin,52.50212925689672,13.431655168533325,German Restaurant
114,nördliche Luisenstadt,52.50241269179749,13.427924597650428,Street Food Thursday,52.50213982664957,13.43166922334885,Street Food Gathering
115,nördliche Luisenstadt,52.50241269179749,13.427924597650428,Weltrestaurant Markthalle,52.50246006782324,13.430918044880098,German Restaurant
116,nördliche Luisenstadt,52.50241269179749,13.427924597650428,Kunstquartier Bethanien,52.50386382060912,13.424628078317806,Art Gallery
117,nördliche Luisenstadt,52.50241269179749,13.427924597650428,8bar Bikes,52.503309198239535,13.430527851704065,Bike Shop
118,nördliche Luisenstadt,52.50241269179749,13.427924597650428,Kantine Neun,52.50210434363279,13.431544580408561,German Restaurant
119,nördliche Luisenstadt,52.50241269179749,13.427924597650428,Alte Milch,52.50202476100858,13.431494235992432,Cheese Shop
120,nördliche Luisenstadt,52.50241269179749,13.427924597650428,Vögelchen,52.502007,13.432472,Bar
121,nördliche Luisenstadt,52.50241269179749,13.427924597650428,Yellow Yoga,52.50068776436536,13.423982212408939,Yoga Studio
122,nördliche Luisenstadt,52.50241269179749,13.427924597650428,Kunstraum Kreuzberg / Bethanien,52.50399420270191,13.424389744004824,Art Gallery
123,nördliche Luisenstadt,52.50241269179749,13.427924597650428,Trattoria Marechiaro,52.50339465642714,13.429992504903142,Trattoria/Osteria
124,nördliche Luisenstadt,52.50241269179749,13.427924597650428,Heimweh,52.4994122830782,13.428425788879395,Kumpir Restaurant
125,nördliche Luisenstadt,52.50241269179749,13.427924597650428,Adana Grillhaus,52.499641,13.426887,Turkish Restaurant
126,nördliche Luisenstadt,52.50241269179749,13.427924597650428,Schwarze Traube,52.50230765102416,13.432857005058205,Cocktail Bar
127,nördliche Luisenstadt,52.50241269179749,13.427924597650428,Kaffee 9,52.50194876234582,13.431997040702443,Coffee Shop
128,nördliche Luisenstadt,52.50241269179749,13.427924597650428,Mariannenplatz,52.503611177804984,13.425244903774,Plaza
129,nördliche Luisenstadt,52.50241269179749,13.427924597650428,Falafel in Berlin,52.49931143322923,13.427939011211153,Falafel Restaurant
130,nördliche Luisenstadt,52.50241269179749,13.427924597650428,3 Schwestern,52.50408402750932,13.42403193076895,German Restaurant
131,Nord 2,52.60336143026583,13.336298478583481,Kaufland,52.60338675158374,13.334950181222244,Big Box Store
132,Nord 2,52.60336143026583,13.336298478583481,Hans Laatzig Automobile GmbH,52.60283306428429,13.335082340043542,Auto Dealership
133,Nord 2,52.60336143026583,13.336298478583481,Sportcenter Wittenau,52.60503982179427,13.338283258593334,Athletics & Sports
134,Nord 2,52.60336143026583,13.336298478583481,Getränke Hoffmann,52.6014597,13.3311332,Liquor Store
135,Nord 2,52.60336143026583,13.336298478583481,Junge- Die Bäckerei,52.601921,13.330148,Bakery
136,Moabit West,52.53082728719922,13.332181553193587,Einer dieser Tage,52.53238792130165,13.3317325258927,Café
137,Moabit West,52.53082728719922,13.332181553193587,Garcia Kaffeebar,52.52766827466156,13.33062445530357,Coffee Shop
138,Moabit West,52.53082728719922,13.332181553193587,Taverna Merkouri,52.530984646778535,13.330183584244173,Taverna
139,Moabit West,52.53082728719922,13.332181553193587,Hamberger,52.53323005719321,13.332538742285122,Market
140,Moabit West,52.53082728719922,13.332181553193587,Kallasch &,52.532868902197215,13.336735511796723,Bar
141,Moabit West,52.53082728719922,13.332181553193587,Eisdiele Marcon,52.52721664721762,13.330068408593696,Ice Cream Shop
142,Moabit West,52.53082728719922,13.332181553193587,Recep Usta Köfteci,52.52713871478175,13.33125093912706,Turkish Restaurant
143,Moabit West,52.53082728719922,13.332181553193587,Zentrum für Kunst und Urbanistik (ZK/U),52.53365944114363,13.336372115138653,Art Gallery
144,Moabit West,52.53082728719922,13.332181553193587,Waldcafé,52.527917,13.331087,Café
145,Moabit West,52.53082728719922,13.332181553193587,Fam. Dang,52.5275960863533,13.327365040721588,Vietnamese Restaurant
146,Moabit West,52.53082728719922,13.332181553193587,El Reda,52.527577353533765,13.327298666410915,Persian Restaurant
147,Moabit West,52.53082728719922,13.332181553193587,Bogazici,52.5269828624452,13.333562969972007,Turkish Restaurant
148,Moabit West,52.53082728719922,13.332181553193587,Café & Simit Evi,52.52915018239252,13.337161177135163,Breakfast Spot
149,Moabit West,52.53082728719922,13.332181553193587,Amstel House,52.528477937749685,13.336744614889128,Hostel
150,Moabit West,52.53082728719922,13.332181553193587,Kanun,52.52747397515529,13.327646647788121,Fried Chicken Joint
151,Moabit West,52.53082728719922,13.332181553193587,BIO COMPANY,52.52689079750634,13.334986166390536,Organic Grocery
152,Moabit West,52.53082728719922,13.332181553193587,Big Bascha,52.527589931972564,13.327295558095226,Lebanese Restaurant
153,Moabit West,52.53082728719922,13.332181553193587,Café Pfau,52.52726660224447,13.33055617842835,Breakfast Spot
154,Moabit West,52.53082728719922,13.332181553193587,Ristorante La Tettoia,52.52823381983103,13.3308434860563,Italian Restaurant
155,Moabit West,52.53082728719922,13.332181553193587,dm-drogerie markt,52.52755,13.329334,Drugstore
156,Moabit West,52.53082728719922,13.332181553193587,Subito,52.529161226415596,13.337145040545183,Bar
157,Moabit West,52.53082728719922,13.332181553193587,City Chicken,52.52747408784474,13.328018140354283,Halal Restaurant
158,Moabit West,52.53082728719922,13.332181553193587,La Fiamma,52.527443717776826,13.329631102918592,Pizza Place
159,Moabit West,52.53082728719922,13.332181553193587,Beirut Express,52.527609,13.328155,Lebanese Restaurant
160,Moabit West,52.53082728719922,13.332181553193587,REWE,52.52720900000002,13.332790218996934,Supermarket
161,Moabit West,52.53082728719922,13.332181553193587,Café Zina,52.528644388173525,13.335838671803234,Café
162,Moabit West,52.53082728719922,13.332181553193587,Rossmann,52.5274092816705,13.329007008503721,Drugstore
163,Moabit West,52.53082728719922,13.332181553193587,Beussel Grill,52.533059782716215,13.32865608049043,Doner Restaurant
164,Moabit West,52.53082728719922,13.332181553193587,Freundliche Bäckerei,52.53314119680605,13.328357333121604,Bakery
165,Moabit West,52.53082728719922,13.332181553193587,Melek Pastanesi,52.53080725032057,13.333593606948853,Bakery
166,Volkspark Wilmersdorf,52.48577391127639,13.329350285632747,Sabor Latino,52.48609421096733,13.329900428763835,Peruvian Restaurant
167,Volkspark Wilmersdorf,52.48577391127639,13.329350285632747,Weichardt Brot,52.48595180187414,13.32616546826688,Bakery
168,Volkspark Wilmersdorf,52.48577391127639,13.329350285632747,Tian Fu II,52.48713276538342,13.329602326226212,Chinese Restaurant
169,Volkspark Wilmersdorf,52.48577391127639,13.329350285632747,Volkspark Wilmersdorf,52.4834336031676,13.326373100280762,Park
170,Volkspark Wilmersdorf,52.48577391127639,13.329350285632747,Badenscher Hof,52.48638842419361,13.32775270543339,Jazz Club
171,Volkspark Wilmersdorf,52.48577391127639,13.329350285632747,ANH BA,52.487191,13.326351,Vietnamese Restaurant
172,Volkspark Wilmersdorf,52.48577391127639,13.329350285632747,Les Baguettes,52.4866644300123,13.326319456100464,Bakery
173,Volkspark Wilmersdorf,52.48577391127639,13.329350285632747,EDEKA,52.4867891,13.3255348,Supermarket
174,Volkspark Wilmersdorf,52.48577391127639,13.329350285632747,BIO COMPANY,52.48570423099271,13.32251556908651,Organic Grocery
175,Volkspark Wilmersdorf,52.48577391127639,13.329350285632747,Egger's,52.48701459266969,13.33066751291655,Argentinian Restaurant
176,Volkspark Wilmersdorf,52.48577391127639,13.329350285632747,Francesco Forgione,52.48740268473961,13.322821855545044,Italian Restaurant
177,Volkspark Wilmersdorf,52.48577391127639,13.329350285632747,eurogida,52.48753092656756,13.331560029113849,Grocery Store
178,Volkspark Wilmersdorf,52.48577391127639,13.329350285632747,McFIT,52.486647,13.32839,Gym / Fitness Center
179,Volkspark Wilmersdorf,52.48577391127639,13.329350285632747,West Burger,52.48686340440469,13.322549768532516,Burger Joint
180,Volkspark Wilmersdorf,52.48577391127639,13.329350285632747,BIO COMPANY,52.48784999999999,13.33551,Organic Grocery
181,Volkspark Wilmersdorf,52.48577391127639,13.329350285632747,Sushi Miyabi,52.48713535160029,13.322618868340347,Sushi Restaurant
182,Volkspark Wilmersdorf,52.48577391127639,13.329350285632747,Café am Volkspark,52.482662612451534,13.325965404510498,Café
183,Volkspark Wilmersdorf,52.48577391127639,13.329350285632747,Bobsek Burger,52.486797012275915,13.323886164039473,Burger Joint
184,Volkspark Wilmersdorf,52.48577391127639,13.329350285632747,Lidl,52.48675840616034,13.324969142933583,Supermarket
185,Volkspark Wilmersdorf,52.48577391127639,13.329350285632747,Thoben's Backwaren,52.486632426429786,13.323771254471179,Bakery
186,Volkspark Wilmersdorf,52.48577391127639,13.329350285632747,Hotel NH Berlin City West,52.48872136559942,13.330779878572018,Hotel
187,Volkspark Wilmersdorf,52.48577391127639,13.329350285632747,Hotel-Pension Gasteiner Hof,52.48731670631572,13.323412853587271,Hotel
188,Volkspark Wilmersdorf,52.48577391127639,13.329350285632747,Grün Elektro,52.48675602200252,13.327186336749206,Lighting Store
189,Volkspark Wilmersdorf,52.48577391127639,13.329350285632747,H U Berliner Straße,52.4866589651261,13.330975530896284,Bus Stop
190,Volkspark Wilmersdorf,52.48577391127639,13.329350285632747,Wein & Vinos,52.48679836209971,13.326802253723145,Wine Shop
191,Volkspark Wilmersdorf,52.48577391127639,13.329350285632747,Blueprint Copyshop,52.48748434932438,13.330600261688232,Paper / Office Supplies Store
192,Volkspark Wilmersdorf,52.48577391127639,13.329350285632747,EDEKA,52.488142203064825,13.334725499153137,Supermarket
193,Volkspark Wilmersdorf,52.48577391127639,13.329350285632747,Tabak Börse,52.48683102840063,13.32642674446106,Smoke Shop
194,Volkspark Wilmersdorf,52.48577391127639,13.329350285632747,Sushi T.Phu,52.48779079827594,13.33405996894363,Japanese Restaurant
195,Volkspark Wilmersdorf,52.48577391127639,13.329350285632747,Pho Bay,52.48650761242479,13.32309816502988,Vietnamese Restaurant
196,Alexanderplatz,52.520863519265845,13.402228032263695,Buchhandlung Walther König,52.52130069676686,13.40075831891714,Bookstore
197,Alexanderplatz,52.520863519265845,13.402228032263695,Kuppelumgang Berliner Dom,52.51896599010725,13.400980681715229,Scenic Lookout
198,Alexanderplatz,52.520863519265845,13.402228032263695,Radisson Blu,52.5195608,13.402857,Hotel
199,Alexanderplatz,52.520863519265845,13.402228032263695,James-Simon-Park,52.52190716050168,13.399361371994019,Park
200,Alexanderplatz,52.520863519265845,13.402228032263695,Waffel oder Becher,52.521006850678695,13.403814748185349,Ice Cream Shop
201,Alexanderplatz,52.520863519265845,13.402228032263695,Alte Nationalgalerie,52.520796016677,13.398673088379343,Art Museum
202,Alexanderplatz,52.520863519265845,13.402228032263695,Adina Apartment Hotel Berlin Hackescher Markt,52.52229341049498,13.404273310410682,Hotel
203,Alexanderplatz,52.520863519265845,13.402228032263695,Hackescher Markt,52.52299349801406,13.40237760464655,Plaza
204,Alexanderplatz,52.520863519265845,13.402228032263695,TheCoven Bar,52.522664,13.400289,Bar
205,Alexanderplatz,52.520863519265845,13.402228032263695,Hotel ZOE,52.5230950484122,13.400966433702536,Hotel
206,Alexanderplatz,52.520863519265845,13.402228032263695,Café 93,52.52299702982836,13.399751875666775,Café
207,Alexanderplatz,52.520863519265845,13.402228032263695,Kadoya,52.522844,13.400317,Japanese Restaurant
208,Alexanderplatz,52.520863519265845,13.402228032263695,DDR Museum,52.51940384308041,13.40223855826597,History Museum
209,Alexanderplatz,52.520863519265845,13.402228032263695,Altes Museum,52.51953741567019,13.398803472518921,History Museum
210,Alexanderplatz,52.520863519265845,13.402228032263695,Lindt,52.51957938,13.40281578,Candy Store
211,Alexanderplatz,52.520863519265845,13.402228032263695,Neues Museum,52.5201576091737,13.39783787727356,History Museum
212,Alexanderplatz,52.520863519265845,13.402228032263695,Lustgarten,52.518469490131785,13.399454063404399,Garden
213,Alexanderplatz,52.520863519265845,13.402228032263695,Ischtar-Tor,52.520741776446705,13.397204678584995,Historic Site
214,Alexanderplatz,52.520863519265845,13.402228032263695,Titus,52.52094968439927,13.405920731515282,Board Shop
215,Alexanderplatz,52.520863519265845,13.402228032263695,The Cathedral Museum,52.518606,13.400889,Museum
216,Alexanderplatz,52.520863519265845,13.402228032263695,MA'LOA Poké Bowl,52.52365268563865,13.400398860752764,Poke Place
217,Alexanderplatz,52.520863519265845,13.402228032263695,BIO COMPANY,52.52302495100017,13.403617698870725,Organic Grocery
218,Alexanderplatz,52.520863519265845,13.402228032263695,Amorino,52.52357551978076,13.401552886189101,Ice Cream Shop
219,Alexanderplatz,52.520863519265845,13.402228032263695,Die Hackeschen Höfe,52.52409392075061,13.402157365180152,Monument / Landmark
220,Alexanderplatz,52.520863519265845,13.402228032263695,monbijou hotel,52.522912013120596,13.400064075865956,Hotel
221,Alexanderplatz,52.520863519265845,13.402228032263695,Yi-Spa,52.52304922664198,13.399589660680252,Spa
222,Alexanderplatz,52.520863519265845,13.402228032263695,Curry 61,52.52363731185383,13.400619701670522,Currywurst Joint
223,Alexanderplatz,52.520863519265845,13.402228032263695,Fun Factory Berlin,52.523552260750606,13.401415188382876,Adult Boutique
224,Alexanderplatz,52.520863519265845,13.402228032263695,UNIQLO,52.52367052971461,13.402583637447577,Clothing Store
225,Alexanderplatz,52.520863519265845,13.402228032263695,Atrium Lobby Lounge & Bar,52.519596959299655,13.40277435240641,Hotel Bar
226,Brunnenstr. Süd,52.53383034189622,13.393345867516581,BrewDog,52.53280111922482,13.395788669586182,Beer Bar
227,Brunnenstr. Süd,52.53383034189622,13.393345867516581,Gedenkstätte Berliner Mauer,52.534896052519215,13.390139937400818,Historic Site
228,Brunnenstr. Süd,52.53383034189622,13.393345867516581,Redwood,52.53167011240907,13.394338387116537,Cocktail Bar
229,Brunnenstr. Süd,52.53383034189622,13.393345867516581,Vom Einfachen das Gute,52.53243194347814,13.396565263319,Deli / Bodega
230,Brunnenstr. Süd,52.53383034189622,13.393345867516581,distrikt COFFEE,52.53158959806963,13.39431876207094,Coffee Shop
231,Brunnenstr. Süd,52.53383034189622,13.393345867516581,Les Pâtisseries de Sébastien,52.532461994787546,13.396976563017251,Pastry Shop
232,Brunnenstr. Süd,52.53383034189622,13.393345867516581,Papà Pane di Sorrento,52.532088288499686,13.396228061281452,Italian Restaurant
233,Brunnenstr. Süd,52.53383034189622,13.393345867516581,Dokumentationszentrum | Documentation Center (Dokumentationszentrum),52.53538550851109,13.389667868614197,History Museum
234,Brunnenstr. Süd,52.53383034189622,13.393345867516581,Katz Orange,52.53151711600785,13.395215128658876,Restaurant
235,Brunnenstr. Süd,52.53383034189622,13.393345867516581,Krøhan Bress,52.531950175522105,13.396177308443127,Smoke Shop
236,Brunnenstr. Süd,52.53383034189622,13.393345867516581,Villa Elisabeth,52.532920653298135,13.396740223514648,Event Space
237,Brunnenstr. Süd,52.53383034189622,13.393345867516581,Süßfein,52.535441544404875,13.397727797762222,Ice Cream Shop
238,Brunnenstr. Süd,52.53383034189622,13.393345867516581,Tommi's Burger Joint,52.53243,13.397567,Burger Joint
239,Brunnenstr. Süd,52.53383034189622,13.393345867516581,Simply Keto,52.53218670036528,13.39614136971281,Café
240,Brunnenstr. Süd,52.53383034189622,13.393345867516581,Becycle,52.53347944059547,13.398609971892046,Cycle Studio
241,Brunnenstr. Süd,52.53383034189622,13.393345867516581,REWE,52.53233634,13.39715682,Supermarket
242,Brunnenstr. Süd,52.53383034189622,13.393345867516581,Du Bonheur,52.536310436823385,13.397557898347719,Pastry Shop
243,Brunnenstr. Süd,52.53383034189622,13.393345867516581,The Tree,52.533632,13.398272,Noodle House
244,Brunnenstr. Süd,52.53383034189622,13.393345867516581,Kochtail,52.532315230563874,13.394921769241762,Miscellaneous Shop
245,Brunnenstr. Süd,52.53383034189622,13.393345867516581,H Gedenkstätte Berliner Mauer,52.53574979652019,13.390707636443713,Tram Station
246,Brunnenstr. Süd,52.53383034189622,13.393345867516581,Chay Viet,52.53417171830115,13.398327256392392,Vegetarian / Vegan Restaurant
247,Brunnenstr. Süd,52.53383034189622,13.393345867516581,Avocai,52.533849,13.398387,Café
248,Brunnenstr. Süd,52.53383034189622,13.393345867516581,Pavlov's Dog,52.53105211157066,13.394596945657165,Art Gallery
249,Brunnenstr. Süd,52.53383034189622,13.393345867516581,Jivamukti Yoga,52.53448564309833,13.399451762796286,Yoga Studio
250,Brunnenstr. Süd,52.53383034189622,13.393345867516581,Buck & Breck,52.532108,13.399026,Cocktail Bar
251,Brunnenstr. Süd,52.53383034189622,13.393345867516581,Factory Kitchen,52.53744922779283,13.39471407352591,Restaurant
252,Brunnenstr. Süd,52.53383034189622,13.393345867516581,My Goodness,52.533440776498246,13.39855844921055,Food & Drink Shop
253,Brunnenstr. Süd,52.53383034189622,13.393345867516581,Filmgalerie 451,52.532213736810036,13.394286632537842,Video Store
254,Brunnenstr. Süd,52.53383034189622,13.393345867516581,Bocca del Buon Gusto,52.532349026117025,13.395081206994295,Italian Restaurant
255,Brunnenstr. Süd,52.53383034189622,13.393345867516581,SLATE,52.533034,13.398346,Restaurant
256,Wedding Zentrum,52.54920062055122,13.364998170955717,Café Cralle,52.55061901645171,13.363448964664057,Bar
257,Wedding Zentrum,52.54920062055122,13.364998170955717,eismanufaktur Berlin,52.549935062868556,13.36366539986049,Ice Cream Shop
258,Wedding Zentrum,52.54920062055122,13.364998170955717,Stranero,52.55213605629426,13.36400082389332,Pizza Place
259,Wedding Zentrum,52.54920062055122,13.364998170955717,Dan Thai Food,52.547587499002105,13.369250244095339,Thai Restaurant
260,Wedding Zentrum,52.54920062055122,13.364998170955717,Motte,52.549521,13.361872,Café
261,Wedding Zentrum,52.54920062055122,13.364998170955717,Basalt,52.55084017306586,13.36078223703918,Bar
262,Wedding Zentrum,52.54920062055122,13.364998170955717,Hak-Bäckerei,52.55202383127641,13.36616737247823,Bakery
263,Wedding Zentrum,52.54920062055122,13.364998170955717,Jatz,52.550326782170295,13.368970443848335,Bar
264,Wedding Zentrum,52.54920062055122,13.364998170955717,Café Largo,52.55069431563843,13.359548799632643,Café
265,Wedding Zentrum,52.54920062055122,13.364998170955717,Himmelbeet,52.547949445967234,13.362340621685675,Garden
266,Wedding Zentrum,52.54920062055122,13.364998170955717,ExRotaprint Kantine,52.550426777366006,13.369833263702342,Restaurant
267,Wedding Zentrum,52.54920062055122,13.364998170955717,Kiki Sol,52.54759,13.368839,Bar
268,Wedding Zentrum,52.54920062055122,13.364998170955717,Auf der Suche nach dem verlorenen Glück,52.54895295253606,13.361233553708391,Café
269,Wedding Zentrum,52.54920062055122,13.364998170955717,Pingolino Eis,52.54959129512073,13.36156409444089,Ice Cream Shop
270,Wedding Zentrum,52.54920062055122,13.364998170955717,MARS Küche & Bar,52.54609439608591,13.366403563937977,Restaurant
271,Wedding Zentrum,52.54920062055122,13.364998170955717,Lino's Barbecue,52.549359,13.361592,BBQ Joint
272,Wedding Zentrum,52.54920062055122,13.364998170955717,Karstadt Lebensmittel by REWE,52.546295697522886,13.360351324081421,Supermarket
273,Wedding Zentrum,52.54920062055122,13.364998170955717,NOKA KOREA Karaoke,52.549672628561545,13.365501944716675,Karaoke Bar
274,Wedding Zentrum,52.54920062055122,13.364998170955717,WG Bar,52.54944512055773,13.362060841987589,Bar
275,Wedding Zentrum,52.54920062055122,13.364998170955717,Taverna Hellas,52.5498,13.357828,Taverna
276,Wedding Zentrum,52.54920062055122,13.364998170955717,Frites van Holland,52.54662679636061,13.359396269373182,Fast Food Restaurant
277,Wedding Zentrum,52.54920062055122,13.364998170955717,Ital Eis Dal Col,52.54539522970515,13.361454280386278,Ice Cream Shop
278,Wedding Zentrum,52.54920062055122,13.364998170955717,Lidl,52.54930335293201,13.369411826133728,Supermarket
279,Wedding Zentrum,52.54920062055122,13.364998170955717,Schäfer,52.55259381594814,13.361794258513656,Mediterranean Restaurant
280,Wedding Zentrum,52.54920062055122,13.364998170955717,ULTramen,52.550564,13.36613,Ramen Restaurant
281,Wedding Zentrum,52.54920062055122,13.364998170955717,Galeria Karstadt Kaufhof,52.54605375,13.36073146,Department Store
282,Wedding Zentrum,52.54920062055122,13.364998170955717,First Grillhaus,52.55229326933569,13.366803528918515,Halal Restaurant
283,Wedding Zentrum,52.54920062055122,13.364998170955717,Parma di Vini benedetti,52.550901,13.359807,Deli / Bodega
284,Wedding Zentrum,52.54920062055122,13.364998170955717,Leopoldplatz,52.546418306525865,13.359184917568777,Plaza
285,Moabit Ost,52.5262653469877,13.355329879324483,Sapori Di Casa,52.52742475408659,13.351518996754958,Italian Restaurant
286,Moabit Ost,52.5262653469877,13.355329879324483,vabali spa,52.52760251193211,13.360555171966553,Spa
287,Moabit Ost,52.5262653469877,13.355329879324483,Fritz-Schloß-Park,52.52807442092505,13.356627920346035,Park
288,Moabit Ost,52.5262653469877,13.355329879324483,coffeemamas,52.524283,13.349305,Coffee Shop
289,Moabit Ost,52.5262653469877,13.355329879324483,Nusantara,52.52639231968529,13.349169108321588,Indonesian Restaurant
290,Moabit Ost,52.5262653469877,13.355329879324483,Berlin Bier Shop,52.52379018468996,13.349350421526868,Beer Store
291,Moabit Ost,52.5262653469877,13.355329879324483,Moabiter Freiheit,52.52530309756155,13.349064535222439,Beer Garden
292,Moabit Ost,52.5262653469877,13.355329879324483,Agra - Indian Cuisine,52.52448584793399,13.349313669086767,Indian Restaurant
293,Moabit Ost,52.5262653469877,13.355329879324483,Stadtbad Tiergarten,52.527150605558774,13.360738461420459,Pool
294,Moabit Ost,52.5262653469877,13.355329879324483,Carl-von-Ossietzky-Park,52.523214606904354,13.355492522337334,Park
295,Moabit Ost,52.5262653469877,13.355329879324483,Monopol,52.52395827347707,13.349390095484578,Restaurant
296,Moabit Ost,52.5262653469877,13.355329879324483,Moa Café & Bar,52.524479,13.349503,Café
297,Moabit Ost,52.5262653469877,13.355329879324483,Ristorante Don Giovanni,52.523414557698686,13.359653626757575,Italian Restaurant
298,Moabit Ost,52.5262653469877,13.355329879324483,Mixtape - Bagel Burgers,52.524280440308054,13.349439953248078,Burger Joint
299,Moabit Ost,52.5262653469877,13.355329879324483,Otti Grill,52.524337855135244,13.350813627585522,Doner Restaurant
300,Moabit Ost,52.5262653469877,13.355329879324483,Viet Snack‘s,52.52438735565754,13.35014023305691,Vietnamese Restaurant
301,Moabit Ost,52.5262653469877,13.355329879324483,Minigolfplatz am Fritz-Schloß-Park,52.52661126001927,13.356027700034668,Mini Golf
302,Moabit Ost,52.5262653469877,13.355329879324483,SportPark Poststadion,52.52648963309643,13.355878125700416,Athletics & Sports
303,Moabit Ost,52.5262653469877,13.355329879324483,Viet My,52.52658800492297,13.3528321034553,Vietnamese Restaurant
304,Moabit Ost,52.5262653469877,13.355329879324483,yogi Restaurant,52.5248261612038,13.356932753867563,Indian Restaurant
305,Moabit Ost,52.5262653469877,13.355329879324483,Ala Eldin,52.52506551989954,13.35829196459464,Café
306,Moabit Ost,52.5262653469877,13.355329879324483,Avrasyam Döneria,52.526439346259615,13.351095935972657,Doner Restaurant
307,Moabit Ost,52.5262653469877,13.355329879324483,Hoa Nam,52.529179,13.351197,Sushi Restaurant
308,Moabit Ost,52.5262653469877,13.355329879324483,Jugendgästehaus Berlin,52.52714252679079,13.362352821551333,Bed & Breakfast
309,Moabit Ost,52.5262653469877,13.355329879324483,Am Schloss Bellevue,52.523062644501394,13.356563766004003,Hotel
310,Moabit Ost,52.5262653469877,13.355329879324483,Seydlitzstraße,52.52699016946845,13.361187842237516,Bus Stop
311,Moabit Ost,52.5262653469877,13.355329879324483,Theater28,52.529764606776695,13.353464858687314,Theater
312,Moabit Ost,52.5262653469877,13.355329879324483,Neumann's,52.52335409937521,13.358498517955223,German Restaurant
313,Moabit Ost,52.5262653469877,13.355329879324483,Maxway Coffee,52.52414,13.349302,Coffee Shop
314,Moabit Ost,52.5262653469877,13.355329879324483,Packstation 211,52.523466330713156,13.360373543066709,Shipping Store
315,Parkviertel,52.552520601548224,13.335601979379415,Volkspark Rehberge,52.54979264830959,13.332767486572266,Park
316,Parkviertel,52.552520601548224,13.335601979379415,Eiscafé Kibo,52.5520339786886,13.341582787328937,Ice Cream Shop
317,Parkviertel,52.552520601548224,13.335601979379415,Schatulle,52.554296,13.331135,Café
318,Parkviertel,52.552520601548224,13.335601979379415,Flop Café,52.55515,13.341183,Café
319,Parkviertel,52.552520601548224,13.335601979379415,Flop,52.554813351937966,13.341457509071999,Bar
320,Parkviertel,52.552520601548224,13.335601979379415,Ringerstatue,52.550873,13.334589,Outdoor Sculpture
321,Parkviertel,52.552520601548224,13.335601979379415,BSC Rehberge 1945 e.V.,52.549662170075635,13.338990211486815,Tennis Court
322,Südliche Friedrichstadt,52.502225315998565,13.397460449067637,Berlinische Galerie,52.50349443401274,13.398402651232848,Art Museum
323,Südliche Friedrichstadt,52.502225315998565,13.397460449067637,NaNum,52.502560299809886,13.394136428833008,Korean Restaurant
324,Südliche Friedrichstadt,52.502225315998565,13.397460449067637,Jüdisches Museum Berlin,52.501946388929426,13.395241498947144,History Museum
325,Südliche Friedrichstadt,52.502225315998565,13.397460449067637,St. Agnes,52.500645241285184,13.40104614278766,Art Gallery
326,Südliche Friedrichstadt,52.502225315998565,13.397460449067637,König Gallery,52.5007963346421,13.40108333958754,Art Gallery
327,Südliche Friedrichstadt,52.502225315998565,13.397460449067637,Tiyatrom,52.50404884927763,13.39924998591818,Theater
328,Südliche Friedrichstadt,52.502225315998565,13.397460449067637,MAHLZEIT Kreuzberg,52.49889271281548,13.400009368629338,Bistro
329,Südliche Friedrichstadt,52.502225315998565,13.397460449067637,Charlotte 1,52.505344,13.393114,Italian Restaurant
330,Südliche Friedrichstadt,52.502225315998565,13.397460449067637,Café Nullpunkt,52.5033962497766,13.392398357391357,Vegetarian / Vegan Restaurant
331,Südliche Friedrichstadt,52.502225315998565,13.397460449067637,Carlier | Gebauer,52.505787477254415,13.394153061607286,Art Gallery
332,Südliche Friedrichstadt,52.502225315998565,13.397460449067637,John & Thommy‘s,52.5055384700557,13.393144230693691,Bar
333,Südliche Friedrichstadt,52.502225315998565,13.397460449067637,Orient Food,52.50285784014575,13.395421551607196,Turkish Restaurant
334,Südliche Friedrichstadt,52.502225315998565,13.397460449067637,Paracas,52.50158732226628,13.391445750901426,Peruvian Restaurant
335,Südliche Friedrichstadt,52.502225315998565,13.397460449067637,The Yard Hotel,52.49914531869051,13.39979160441218,Hotel
336,Südliche Friedrichstadt,52.502225315998565,13.397460449067637,Mondrian Suites,52.50629202707911,13.395531816374474,Hotel
337,Südliche Friedrichstadt,52.502225315998565,13.397460449067637,Game Science Center Berlin,52.50486346685847,13.393522525148,Science Museum
338,Südliche Friedrichstadt,52.502225315998565,13.397460449067637,Theodor Wolff Park,52.501335,13.390231,Park
339,Südliche Friedrichstadt,52.502225315998565,13.397460449067637,Trattoria da Vinci,52.50429268429871,13.391250658918112,Trattoria/Osteria
340,Südliche Friedrichstadt,52.502225315998565,13.397460449067637,Super Ibérico,52.50551128525538,13.394380622117417,Spanish Restaurant
341,Südliche Friedrichstadt,52.502225315998565,13.397460449067637,Zhong Hua,52.50507352126868,13.396699588508573,Chinese Restaurant
342,Südliche Friedrichstadt,52.502225315998565,13.397460449067637,Tumi,52.502048269655575,13.391241898455847,Lebanese Restaurant
343,Südliche Friedrichstadt,52.502225315998565,13.397460449067637,Café Dix,52.50346734473606,13.39855135289351,Café
344,Südliche Friedrichstadt,52.502225315998565,13.397460449067637,Gasthaus Glashaus,52.50519654678214,13.396909579977276,Eastern European Restaurant
345,Südliche Friedrichstadt,52.502225315998565,13.397460449067637,Mehringplatz,52.499608715537015,13.392690107439615,Plaza
346,Südliche Friedrichstadt,52.502225315998565,13.397460449067637,La Piccola,52.50531061239877,13.397185763347172,Italian Restaurant
347,Südliche Friedrichstadt,52.502225315998565,13.397460449067637,Delhi 6,52.501814043131105,13.391161136183799,Indian Restaurant
348,Südliche Friedrichstadt,52.502225315998565,13.397460449067637,GOLD INN Angleterre,52.5047259268853,13.391330075082458,Hotel
349,Südliche Friedrichstadt,52.502225315998565,13.397460449067637,Rossmann,52.500193987923694,13.391562584057919,Drugstore
350,Südliche Friedrichstadt,52.502225315998565,13.397460449067637,Dai An Asia,52.50198693790053,13.391254145705089,Asian Restaurant
351,Südliche Friedrichstadt,52.502225315998565,13.397460449067637,Cafe Madame,52.499668749634374,13.392299894979478,Café
352,Karl-Marx-Allee-Nord,52.523069417440006,13.438159075590836,Stoff und Stil,52.52456931899002,13.443069606507812,Department Store
353,Karl-Marx-Allee-Nord,52.523069417440006,13.438159075590836,Feinbäckerei Schubbert,52.51874274789905,13.438644391235899,Bakery
354,Karl-Marx-Allee-Nord,52.523069417440006,13.438159075590836,Themengarten Bachlauf,52.526850034685,13.434417963374543,Garden
355,Karl-Marx-Allee-Nord,52.523069417440006,13.438159075590836,Pavillon,52.524985010239455,13.432064962829257,Beer Garden
356,Karl-Marx-Allee-Nord,52.523069417440006,13.438159075590836,Altberliner Bäckerei,52.52200508109163,13.432588577270508,Bakery
357,Karl-Marx-Allee-Nord,52.523069417440006,13.438159075590836,Lidl,52.52231026553007,13.435206413269043,Supermarket
358,Karl-Marx-Allee-Nord,52.523069417440006,13.438159075590836,Hotel NH Berlin Alexanderplatz,52.522989229849024,13.43702979879226,Hotel
359,Karl-Marx-Allee-Nord,52.523069417440006,13.438159075590836,Hundeplatz im Volkspark Friedrichshain,52.52669240490528,13.440939787476688,Dog Run
360,Karl-Marx-Allee-Nord,52.523069417440006,13.438159075590836,Sanitätshaus Seeger hilft,52.522709,13.440923,Medical Supply Store
361,Karl-Marx-Allee-Nord,52.523069417440006,13.438159075590836,Back-Café Harmonie,52.522972,13.4406,Café
362,Karl-Marx-Allee-Nord,52.523069417440006,13.438159075590836,Bäcker Am Hain,52.5237353221717,13.43912095967938,Bakery
363,Karl-Marx-Allee-Nord,52.523069417440006,13.438159075590836,Packstation 214,52.5251410709408,13.443830318060828,Shipping Store
364,Karl-Marx-Allee-Nord,52.523069417440006,13.438159075590836,Sportplatz des VfB Berlin Friedrichshain 1911 e.V.,52.52631101212811,13.441556525069425,Soccer Field
365,Tempelhofer Vorstadt,52.49211905193493,13.393870335137297,Nonne & Zwerg,52.492640976676846,13.396822214937552,Mediterranean Restaurant
366,Tempelhofer Vorstadt,52.49211905193493,13.393870335137297,LIMONADIER,52.491849906075345,13.390709196418099,Cocktail Bar
367,Tempelhofer Vorstadt,52.49211905193493,13.393870335137297,Space Hall,52.49074568853362,13.39476826059005,Record Shop
368,Tempelhofer Vorstadt,52.49211905193493,13.393870335137297,Tutti Sudanesische Küche,52.4909315584266,13.394228026403038,African Restaurant
369,Tempelhofer Vorstadt,52.49211905193493,13.393870335137297,Ocakbasi Holzkohlengrill Restaurant,52.49304296411288,13.394862784168467,Mediterranean Restaurant
370,Tempelhofer Vorstadt,52.49211905193493,13.393870335137297,Cuccuma,52.490682082409705,13.39419235367524,Coffee Shop
371,Tempelhofer Vorstadt,52.49211905193493,13.393870335137297,Maselli Ristorante,52.4917613598637,13.390707253328141,Italian Restaurant
372,Tempelhofer Vorstadt,52.49211905193493,13.393870335137297,Molinari & Ko,52.490348,13.392124,Italian Restaurant
373,Tempelhofer Vorstadt,52.49211905193493,13.393870335137297,Chapter One,52.48976163897703,13.395976072085904,Coffee Shop
374,Tempelhofer Vorstadt,52.49211905193493,13.393870335137297,pörx,52.49323718988039,13.395379926630797,Bar
375,Tempelhofer Vorstadt,52.49211905193493,13.393870335137297,Hostaria Del Monte Croce,52.494132673012686,13.39634082324524,Italian Restaurant
376,Tempelhofer Vorstadt,52.49211905193493,13.393870335137297,Marheineke Markthalle,52.48940505663732,13.394415378570557,Market
377,Tempelhofer Vorstadt,52.49211905193493,13.393870335137297,Umami,52.48958891456395,13.3909700267607,Vietnamese Restaurant
378,Tempelhofer Vorstadt,52.49211905193493,13.393870335137297,Soviet Gallery & Cafe,52.49070358276367,13.392443656921387,Café
379,Tempelhofer Vorstadt,52.49211905193493,13.393870335137297,Otherland Buchhandlung,52.488994541767084,13.394460533656124,Bookstore
380,Tempelhofer Vorstadt,52.49211905193493,13.393870335137297,Les Epicuriens,52.48934821075931,13.39480966463374,Gourmet Shop
381,Tempelhofer Vorstadt,52.49211905193493,13.393870335137297,Antonello's Cevicheria & Street Food,52.4904993,13.3901334,Italian Restaurant
382,Tempelhofer Vorstadt,52.49211905193493,13.393870335137297,Zahers,52.49004191295156,13.390230084332249,Bar
383,Tempelhofer Vorstadt,52.49211905193493,13.393870335137297,Zyankali Bar,52.491534,13.3929389,Cocktail Bar
384,Tempelhofer Vorstadt,52.49211905193493,13.393870335137297,Madang,52.49233804761638,13.390273814294162,Korean Restaurant
385,Tempelhofer Vorstadt,52.49211905193493,13.393870335137297,Le Bretagne,52.489285579225196,13.394530642056624,Creperie
386,Tempelhofer Vorstadt,52.49211905193493,13.393870335137297,SUN YOGA Kreuzberg,52.49335421208373,13.389555607289163,Yoga Studio
387,Tempelhofer Vorstadt,52.49211905193493,13.393870335137297,Tibet-Haus,52.49072211396973,13.394179079111902,Tibetan Restaurant
388,Tempelhofer Vorstadt,52.49211905193493,13.393870335137297,Cube Sushi,52.49082687371909,13.39424240698957,Sushi Restaurant
389,Tempelhofer Vorstadt,52.49211905193493,13.393870335137297,Barcomi's Kaffeerösterei,52.489165679461344,13.393431247539324,Coffee Shop
390,Tempelhofer Vorstadt,52.49211905193493,13.393870335137297,Felix Austria,52.48887589054454,13.395026922225952,Austrian Restaurant
391,Tempelhofer Vorstadt,52.49211905193493,13.393870335137297,Ernst,52.48955909806268,13.392007123858333,Bar
392,Tempelhofer Vorstadt,52.49211905193493,13.393870335137297,Not Only Riesling,52.48920253703286,13.39755892753601,Wine Shop
393,Tempelhofer Vorstadt,52.49211905193493,13.393870335137297,Clash,52.49197320217103,13.388498919399971,Bar
394,Tempelhofer Vorstadt,52.49211905193493,13.393870335137297,What a Treat - mad about breakfast,52.49204,13.393599,Breakfast Spot
395,südliche Luisenstadt,52.49626986929622,13.43684477029317,Café Mugrabi,52.49770362044022,13.43741654590141,Breakfast Spot
396,südliche Luisenstadt,52.49626986929622,13.43684477029317,Facciola,52.49572843103693,13.433771348040839,Wine Bar
397,südliche Luisenstadt,52.49626986929622,13.43684477029317,De Noantri,52.498214,13.436039,Italian Restaurant
398,südliche Luisenstadt,52.49626986929622,13.43684477029317,Bar Raval,52.49804393581454,13.436357080936432,Tapas Restaurant
399,südliche Luisenstadt,52.49626986929622,13.43684477029317,Nest,52.49712052755012,13.439009234381851,Café
400,südliche Luisenstadt,52.49626986929622,13.43684477029317,USCHI nation,52.494243279028275,13.435198224614945,Bar
401,südliche Luisenstadt,52.49626986929622,13.43684477029317,Five Elephant,52.49332943821452,13.438029659465533,Coffee Shop
402,südliche Luisenstadt,52.49626986929622,13.43684477029317,DingsDums Dumplings,52.496123,13.435186,Dim Sum Restaurant
403,südliche Luisenstadt,52.49626986929622,13.43684477029317,Kinderbauernhof im Görli,52.495612891879205,13.438439693770414,Farm
404,südliche Luisenstadt,52.49626986929622,13.43684477029317,eliza - Café & Lieblingsstücke,52.49902670119798,13.438600811407404,Café
405,südliche Luisenstadt,52.49626986929622,13.43684477029317,Görlitzer Park,52.497051137217326,13.436019316646357,Park
406,südliche Luisenstadt,52.49626986929622,13.43684477029317,Konrad Tönz,52.49755548845145,13.441333964791445,Bar
407,südliche Luisenstadt,52.49626986929622,13.43684477029317,I Golosi Briganti,52.497944568383176,13.441769741048313,Deli / Bodega
408,südliche Luisenstadt,52.49626986929622,13.43684477029317,PIZZA-BACK-KIEZ,52.49383424263303,13.43608958087457,Pizza Place
409,südliche Luisenstadt,52.49626986929622,13.43684477029317,Mmaah,52.496697004974486,13.433808912697778,Korean Restaurant
410,südliche Luisenstadt,52.49626986929622,13.43684477029317,Bantabaa FoodDealer,52.497377,13.44099,Café
411,südliche Luisenstadt,52.49626986929622,13.43684477029317,Nachtigall Imbiss,52.496771,13.431313,Lebanese Restaurant
412,südliche Luisenstadt,52.49626986929622,13.43684477029317,Restaurant Bastard,52.495228729472586,13.431698083877563,Breakfast Spot
413,südliche Luisenstadt,52.49626986929622,13.43684477029317,vanille & marille,52.4947747524091,13.433350324630737,Ice Cream Shop
414,südliche Luisenstadt,52.49626986929622,13.43684477029317,Aesop,52.49462254402153,13.432850780048197,Cosmetics Shop
415,südliche Luisenstadt,52.49626986929622,13.43684477029317,Barny’s Deli,52.498441,13.439639,Sandwich Place
416,südliche Luisenstadt,52.49626986929622,13.43684477029317,Hopfenreich,52.499639642377716,13.43929160699031,Beer Bar
417,südliche Luisenstadt,52.49626986929622,13.43684477029317,Gobento Shiro,52.494766,13.432994,Japanese Restaurant
418,südliche Luisenstadt,52.49626986929622,13.43684477029317,Coffee 'n' Shoe Shine,52.49470147582947,13.433362279776503,Café
419,südliche Luisenstadt,52.49626986929622,13.43684477029317,Sumak Teehaus,52.49919280814795,13.440190826698386,Tea Room
420,südliche Luisenstadt,52.49626986929622,13.43684477029317,Kvartira Nr. 62,52.49990607474777,13.437773963752973,Bar
421,südliche Luisenstadt,52.49626986929622,13.43684477029317,Sahara Imbiss,52.4946893287033,13.433222842502616,Middle Eastern Restaurant
422,südliche Luisenstadt,52.49626986929622,13.43684477029317,Baretto,52.49985010430558,13.438835664396496,Café
423,südliche Luisenstadt,52.49626986929622,13.43684477029317,Annelies,52.49844722656305,13.434811065509907,Coffee Shop
424,südliche Luisenstadt,52.49626986929622,13.43684477029317,Trattoria Venezia,52.49338304537975,13.434560431165483,Trattoria/Osteria
425,Buchholz,52.60729606824912,13.430846661110863,Rossmann,52.607502489057886,13.429487428614847,Drugstore
426,Buchholz,52.60729606824912,13.430846661110863,REWE,52.6070613234738,13.428980299987415,Supermarket
427,Buchholz,52.60729606824912,13.430846661110863,denn's Biomarkt,52.60747817769371,13.429069519042969,Organic Grocery
428,Buchholz,52.60729606824912,13.430846661110863,Netto Marken-Discount,52.61042029999999,13.431507,Supermarket
429,Buchholz,52.60729606824912,13.430846661110863,REWE,52.603946389082566,13.432516271163877,Supermarket
430,Buchholz,52.60729606824912,13.430846661110863,Restaurant Hercules,52.60729170926237,13.424642878763528,Greek Restaurant
431,Karow,52.61218169070743,13.47959705895645,Lidl,52.60796682421691,13.478057384490967,Supermarket
432,Karow,52.61218169070743,13.47959705895645,PaechElektro Inh. Andreas Stoye,52.611395,13.483263,Construction & Landscaping
433,Karow,52.61218169070743,13.47959705895645,Friseur Ohmen,52.60967323551248,13.480748292604432,Cosmetics Shop
434,Karow,52.61218169070743,13.47959705895645,Restaurant Alt-Karow,52.60930949119546,13.481371444395082,German Restaurant
435,Weißensee,52.5528004694765,13.451795940645518,Eisspatz,52.552984063590934,13.44922305192657,Ice Cream Shop
436,Weißensee,52.5528004694765,13.451795940645518,Babuschka in der alten Fischräucherei,52.550547,13.447008,Café
437,Weißensee,52.5528004694765,13.451795940645518,Fellini PIZZA,52.548801251679656,13.450058154372302,Pizza Place
438,Weißensee,52.5528004694765,13.451795940645518,Kino Toni & Tonino,52.54875144271796,13.450917950742943,Indie Movie Theater
439,Weißensee,52.5528004694765,13.451795940645518,Le Food,52.549486027470586,13.448034167676667,Asian Restaurant
440,Weißensee,52.5528004694765,13.451795940645518,Mirbachplatz,52.5529689368457,13.448931780313616,Plaza
441,Weißensee,52.5528004694765,13.451795940645518,Parkstern,52.554768822220424,13.45832524762902,German Restaurant
442,Weißensee,52.5528004694765,13.451795940645518,Living Hotel Weißensee,52.554305651638245,13.457305937972706,Hotel
443,Weißensee,52.5528004694765,13.451795940645518,Moon Asiate,52.548613,13.450423,Asian Restaurant
444,Weißensee,52.5528004694765,13.451795940645518,PastaLaden,52.548878,13.449719,Italian Restaurant
445,Weißensee,52.5528004694765,13.451795940645518,Restaurant Platon,52.553065945851515,13.44869191812933,Greek Restaurant
446,Weißensee,52.5528004694765,13.451795940645518,Rossmann,52.54853628158097,13.451918669449892,Drugstore
447,Weißensee,52.5528004694765,13.451795940645518,H Antonplatz,52.54853461005465,13.451872976959585,Tram Station
448,Weißensee,52.5528004694765,13.451795940645518,Rossmann,52.5488122477043,13.4539425101346,Drugstore
449,Weißensee,52.5528004694765,13.451795940645518,BackWerk,52.548619229727755,13.452792010989697,Bakery
450,Weißensee,52.5528004694765,13.451795940645518,NETTO,52.5514622,13.4554293,Supermarket
451,Weißensee,52.5528004694765,13.451795940645518,Antonplatz,52.548476640946916,13.450812525688784,Plaza
452,Weißensee,52.5528004694765,13.451795940645518,Bäckerei Schnell,52.554937565724984,13.450420082968257,Bakery
453,Weißensee,52.5528004694765,13.451795940645518,Biergarten,52.55485705033249,13.457141052258862,Food
454,Weißensee,52.5528004694765,13.451795940645518,Video Inn,52.54914818383516,13.453830319861872,Video Store
455,Weißensee,52.5528004694765,13.451795940645518,Konnopke's Imbiss,52.548377738811084,13.45295533925248,Fast Food Restaurant
456,Weißensee,52.5528004694765,13.451795940645518,Getränke Hoffmann,52.549623665115355,13.447952941139192,Liquor Store
457,Weißensee,52.5528004694765,13.451795940645518,Die Etage East,52.54931361382534,13.448640411926755,Hostel
458,Weißensee,52.5528004694765,13.451795940645518,Bäckerei Schnell,52.54874929058861,13.45253898712977,Bakery
459,Weißensee,52.5528004694765,13.451795940645518,Woolworth,52.54883794,13.45444434,Department Store
460,Pankow Zentrum,52.57520317171023,13.41303374840936,Schlosspark Niederschönhausen,52.577017,13.407866,Park
461,Pankow Zentrum,52.57520317171023,13.41303374840936,Eden*****,52.57134225789132,13.411595043768896,Café
462,Pankow Zentrum,52.57520317171023,13.41303374840936,Hey Cheuk Lau,52.57157373631524,13.411797206606447,Chinese Restaurant
463,Pankow Zentrum,52.57520317171023,13.41303374840936,Sommerbad Pankow,52.57596848507071,13.414341303134785,Pool
464,Pankow Zentrum,52.57520317171023,13.41303374840936,H Mendelstraße,52.57483779014221,13.418882107606311,Tram Station
465,Pankow Zentrum,52.57520317171023,13.41303374840936,Sun Lounge,52.57671269999999,13.4184102,Tanning Salon
466,Pankow Zentrum,52.57520317171023,13.41303374840936,Forum Pankow,52.57215140317362,13.41714728302819,Shopping Mall
467,Pankow Zentrum,52.57520317171023,13.41303374840936,ALDI NORD,52.57204178128823,13.417623865593056,Supermarket
468,Pankow Zentrum,52.57520317171023,13.41303374840936,Ristorante Pizzeria L'arte Bianca,52.571162102120994,13.40997632627354,Italian Restaurant
469,Blankenburg/Heinersdorf/Märchenland,52.5836459140117,13.46063717227142,H Mörderberg,52.58503154904238,13.460404297601565,Bus Stop
470,Schönholz/Wilhelmsruh/Rosenthal,52.58677847114489,13.376524236347798,Sindbad,52.58442569931593,13.375597385306454,Pub
471,Schönholz/Wilhelmsruh/Rosenthal,52.58677847114489,13.376524236347798,H Eisenblätterstraße,52.582999785566535,13.374588489532469,Bus Stop
472,Schönholz/Wilhelmsruh/Rosenthal,52.58677847114489,13.376524236347798,Bäckerei Thürmann,52.58826436196787,13.370177460304486,Bakery
473,Schönholz/Wilhelmsruh/Rosenthal,52.58677847114489,13.376524236347798,Domino's Pizza Berlin Pankow,52.59118529784894,13.376845519494282,Pizza Place
474,Mierendorffplatz,52.52761678111969,13.30615556376933,Café Friedrichs,52.52486589999999,13.3042568,Café
475,Mierendorffplatz,52.52761678111969,13.30615556376933,Hüco Stoffe,52.52845924653324,13.306524413804256,Fabric Shop
476,Mierendorffplatz,52.52761678111969,13.30615556376933,Lasergame Berlin - Hauptquartier,52.524097463922736,13.307422309473955,Laser Tag
477,Mierendorffplatz,52.52761678111969,13.30615556376933,Zafirah Lounge,52.52612897176138,13.303743302822113,Hookah Bar
478,Mierendorffplatz,52.52761678111969,13.30615556376933,REWE,52.52348579357938,13.306713835883556,Supermarket
479,Mierendorffplatz,52.52761678111969,13.30615556376933,Musik Z Cafe,52.524596398942094,13.302840483744465,Bar
480,Mierendorffplatz,52.52761678111969,13.30615556376933,Lidl,52.527743,13.3073871,Supermarket
481,Mierendorffplatz,52.52761678111969,13.30615556376933,EDEKA,52.52577369462599,13.301872759717963,Supermarket
482,Mierendorffplatz,52.52761678111969,13.30615556376933,Coffeemeer,52.52503328882538,13.303625971170897,Coffee Shop
483,Mierendorffplatz,52.52761678111969,13.30615556376933,Mierendorffplatz,52.52607838423332,13.30516219139099,Plaza
484,Mierendorffplatz,52.52761678111969,13.30615556376933,Timeless,52.52570773585907,13.311762702093581,Mexican Restaurant
485,Mierendorffplatz,52.52761678111969,13.30615556376933,Phan Gia,52.52553171048029,13.306076532937752,Asian Restaurant
486,Mierendorffplatz,52.52761678111969,13.30615556376933,Fressnapf,52.5235576,13.3093235,Pet Store
487,Mierendorffplatz,52.52761678111969,13.30615556376933,Sporthalle Charlottenburg,52.523570878468895,13.3054552830595,Gym
488,Mierendorffplatz,52.52761678111969,13.30615556376933,Assos,52.525824,13.307392,Fast Food Restaurant
489,Mierendorffplatz,52.52761678111969,13.30615556376933,Stern Bäckerei & Konditorei,52.525711301413445,13.310873021222065,Bakery
490,Mierendorffplatz,52.52761678111969,13.30615556376933,H Quedlinburger Straße,52.52381078609331,13.306111284936353,Bus Stop
491,Mierendorffplatz,52.52761678111969,13.30615556376933,U Jungfernheide,52.530621238293826,13.300752639770508,Metro Station
492,Mierendorffplatz,52.52761678111969,13.30615556376933,Aparotel Hotel Berlin,52.5261463839976,13.300893916484915,Hotel
493,Pankow Süd,52.56366921228924,13.419309868525806,Kissingen-Stadion,52.56580107509117,13.422862080027704,Soccer Field
494,Pankow Süd,52.56366921228924,13.419309868525806,Fitness unlimited,52.56095786458289,13.422270189765062,Gym / Fitness Center
495,Pankow Süd,52.56366921228924,13.419309868525806,Rossmann,52.561066,13.423484,Drugstore
496,Pankow Süd,52.56366921228924,13.419309868525806,REWE,52.5614138,13.4224983,Supermarket
497,Pankow Süd,52.56366921228924,13.419309868525806,EDEKA Kiezmarkt,52.56434304,13.42078609,Supermarket
498,Pankow Süd,52.56366921228924,13.419309868525806,Lidl,52.56367494644978,13.41230034828186,Supermarket
499,Pankow Süd,52.56366921228924,13.419309868525806,Leo E Pepe,52.563449,13.41948,Italian Restaurant
500,Pankow Süd,52.56366921228924,13.419309868525806,H Arnold-Zweig-Straße,52.56303622076121,13.421512027636949,Bus Stop
501,Pankow Süd,52.56366921228924,13.419309868525806,ALDI NORD,52.56135617763881,13.422330425908825,Supermarket
502,Pankow Süd,52.56366921228924,13.419309868525806,H Lohmestraße,52.56644295472066,13.41593915729455,Bus Stop
503,Pankow Süd,52.56366921228924,13.419309868525806,Johns Bäckerei & Konditorei,52.56718,13.419269,Bakery
504,Pankow Süd,52.56366921228924,13.419309868525806,H Elsa-Brändström-Str. / Neumannstr.,52.56032175428653,13.422201105183614,Bus Stop
505,Pankow Süd,52.56366921228924,13.419309868525806,Elsa Bäckerei & Café,52.55983120868525,13.418875002574906,Bakery
506,Pankow Süd,52.56366921228924,13.419309868525806,Restaurant Athena-Roma,52.5608262380688,13.423906467794685,Greek Restaurant
507,Pankow Süd,52.56366921228924,13.419309868525806,Bäckerei und Konditorei Thomas Wildschütz,52.56359875202179,13.412514925003052,Bakery
508,Weißensee Ost,52.558075323867676,13.474756001807483,Bunte Kuh,52.557292359977986,13.470194877181749,Recreation Center
509,Weißensee Ost,52.558075323867676,13.474756001807483,ECC Kunst & Atelierstadt,52.559843904296706,13.469716117598914,Art Gallery
510,Weißensee Ost,52.558075323867676,13.474756001807483,Zum Nudelholz,52.55586540985189,13.479664121859667,German Restaurant
511,Weißensee Ost,52.558075323867676,13.474756001807483,EDEKA Kitschun,52.55383942,13.47540358,Supermarket
512,Prenzlauer Berg Nordwest,52.550269252005094,13.406401035868779,Cafe Kraft,52.551228,13.403916,Coffee Shop
513,Prenzlauer Berg Nordwest,52.550269252005094,13.406401035868779,Omoni,52.54916084567979,13.408934562386694,Sushi Restaurant
514,Prenzlauer Berg Nordwest,52.550269252005094,13.406401035868779,Blaumilchkanal,52.55137628328503,13.404216514363604,Bar
515,Prenzlauer Berg Nordwest,52.550269252005094,13.406401035868779,Restorani Tbilisi,52.55181155867533,13.408228915591165,Caucasian Restaurant
516,Prenzlauer Berg Nordwest,52.550269252005094,13.406401035868779,Unser Café,52.54999621071743,13.408094570407897,Café
517,Prenzlauer Berg Nordwest,52.550269252005094,13.406401035868779,Kohlenquelle,52.5491948878409,13.40795265707412,Pub
518,Prenzlauer Berg Nordwest,52.550269252005094,13.406401035868779,Bäckerei und Konditorei Siebert,52.55286319203129,13.408512700891807,Bakery
519,Prenzlauer Berg Nordwest,52.550269252005094,13.406401035868779,Rhinoçéros,52.54815,13.40997,Bar
520,Prenzlauer Berg Nordwest,52.550269252005094,13.406401035868779,REWE,52.55074794435115,13.409915555464863,Supermarket
521,Prenzlauer Berg Nordwest,52.550269252005094,13.406401035868779,Veganz,52.55085,13.408428,Grocery Store
522,Prenzlauer Berg Nordwest,52.550269252005094,13.406401035868779,La Buvette,52.547443980744625,13.409124612808228,Wine Bar
523,Prenzlauer Berg Nordwest,52.550269252005094,13.406401035868779,Bar Salumeria Sigismondo,52.54885574142543,13.411567326359338,Coffee Shop
524,Prenzlauer Berg Nordwest,52.550269252005094,13.406401035868779,Lola was here,52.55190000123299,13.410665714790376,Café
525,Prenzlauer Berg Nordwest,52.550269252005094,13.406401035868779,Onkel Ho,52.54704441052437,13.40604622876056,Vietnamese Restaurant
526,Prenzlauer Berg Nordwest,52.550269252005094,13.406401035868779,Wim Kaffee,52.54782110753511,13.409815194969818,Coffee Shop
527,Prenzlauer Berg Nordwest,52.550269252005094,13.406401035868779,Schwesterherz,52.548961486588915,13.406254728118407,Café
528,Prenzlauer Berg Nordwest,52.550269252005094,13.406401035868779,Song Nguu,52.54670539928432,13.405606068495455,Vietnamese Restaurant
529,Prenzlauer Berg Nordwest,52.550269252005094,13.406401035868779,La Lupa e l'orso,52.55214912752602,13.408402956529333,Italian Restaurant
530,Prenzlauer Berg Nordwest,52.550269252005094,13.406401035868779,Sveda - Great Food & Drinks,52.547613,13.401106,Café
531,Prenzlauer Berg Nordwest,52.550269252005094,13.406401035868779,The Bird,52.546305,13.405921,Burger Joint
532,Prenzlauer Berg Nordwest,52.550269252005094,13.406401035868779,JOHN REED Women's Club,52.5509623,13.4134362,Gym / Fitness Center
533,Prenzlauer Berg Nordwest,52.550269252005094,13.406401035868779,moto,52.55222027763351,13.412878505330081,Bar
534,Prenzlauer Berg Nordwest,52.550269252005094,13.406401035868779,Best Friends,52.54702109687461,13.405838231558581,Japanese Restaurant
535,Prenzlauer Berg Nordwest,52.550269252005094,13.406401035868779,Asiaküche Phuoc,52.55129978077859,13.405170043818746,Vietnamese Restaurant
536,Prenzlauer Berg Nordwest,52.550269252005094,13.406401035868779,Haus der Sinne,52.54913651862875,13.404115540552892,Theater
537,Prenzlauer Berg Nordwest,52.550269252005094,13.406401035868779,Tapitas,52.547437,13.411143,Tapas Restaurant
538,Prenzlauer Berg Nordwest,52.550269252005094,13.406401035868779,dm-drogerie markt,52.550973,13.413431,Drugstore
539,Prenzlauer Berg Nordwest,52.550269252005094,13.406401035868779,Café Frau Krüger,52.5483019673496,13.400737592221304,Café
540,Prenzlauer Berg Nordwest,52.550269252005094,13.406401035868779,Arnimplatz,52.55367546440812,13.407206888364364,Park
541,Prenzlauer Berg Nordwest,52.550269252005094,13.406401035868779,Café Milchbart,52.552332131592664,13.411752938228044,Café
542,Prenzlauer Berg Nord,52.5477328890486,13.429988066743661,AtayaCaffe Vegan Restaurant,52.54724172849327,13.426902294158936,Vegetarian / Vegan Restaurant
543,Prenzlauer Berg Nord,52.5477328890486,13.429988066743661,Agni,52.5492117638926,13.429127175015285,Indian Restaurant
544,Prenzlauer Berg Nord,52.5477328890486,13.429988066743661,Orange Coffee,52.54719253091416,13.428360230863493,Café
545,Prenzlauer Berg Nord,52.5477328890486,13.429988066743661,Lao Xiang,52.546011,13.427489,Chinese Restaurant
546,Prenzlauer Berg Nord,52.5477328890486,13.429988066743661,Eckstern,52.54637854156583,13.433402108555219,Café
547,Prenzlauer Berg Nord,52.5477328890486,13.429988066743661,Getränke Hoffmann,52.547793057567134,13.430528708003976,Food & Drink Shop
548,Prenzlauer Berg Nord,52.5477328890486,13.429988066743661,Walid Speisemeisterei,52.547723,13.42335,German Restaurant
549,Prenzlauer Berg Nord,52.5477328890486,13.429988066743661,Lidl,52.5465061096227,13.429544270038605,Supermarket
550,Prenzlauer Berg Nord,52.5477328890486,13.429988066743661,dm-drogerie markt,52.55058446405281,13.434062191697308,Drugstore
551,Prenzlauer Berg Nord,52.5477328890486,13.429988066743661,Ehemaliges Stummfilmkino Delphi,52.55192765185302,13.431232230749847,Event Space
552,Prenzlauer Berg Nord,52.5477328890486,13.429988066743661,Zaika,52.548138,13.422789,Indian Restaurant
553,Prenzlauer Berg Nord,52.5477328890486,13.429988066743661,Mitte Meer,52.55169083217036,13.430069066424117,Gourmet Shop
554,Prenzlauer Berg Nord,52.5477328890486,13.429988066743661,BIO COMPANY,52.54405800456647,13.426940233644006,Organic Grocery
555,Prenzlauer Berg Nord,52.5477328890486,13.429988066743661,REWE,52.55085632321703,13.432392055225364,Supermarket
556,Prenzlauer Berg Nord,52.5477328890486,13.429988066743661,Staatliche Ballettschule Berlin und Schule für Artistik,52.54561073556471,13.436036400149112,Dance Studio
557,Prenzlauer Berg Nord,52.5477328890486,13.429988066743661,Nemo Mediterrane Feinkost und Bäckerei,52.55161030267242,13.430212706175862,Italian Restaurant
558,Prenzlauer Berg Nord,52.5477328890486,13.429988066743661,Fressnapf,52.55105955240092,13.431549337254756,Pet Store
559,Prenzlauer Berg Nord,52.5477328890486,13.429988066743661,denn's biomarkt,52.55163152873565,13.430009233353125,Organic Grocery
560,Prenzlauer Berg Nord,52.5477328890486,13.429988066743661,Carglass,52.55129801287667,13.431226015090942,Auto Garage
561,Prenzlauer Berg Nord,52.5477328890486,13.429988066743661,Bäckerei Backelfe,52.55203785724726,13.430269603154802,Bakery
562,Charlottenburg Nord,52.541066315304285,13.296857897621623,Waldhochseilgarten Jungfernheide,52.543000734285,13.290644018913769,Rock Climbing Spot
563,Charlottenburg Nord,52.541066315304285,13.296857897621623,Sommergarten am Wasserturm,52.54369352789482,13.290926170139885,Beer Garden
564,Charlottenburg Nord,52.541066315304285,13.296857897621623,NETTO,52.539886322271286,13.29615003388567,Supermarket
565,Charlottenburg Nord,52.541066315304285,13.296857897621623,Post Filiale,52.53938734509769,13.299353908210309,Post Office
566,Charlottenburg Nord,52.541066315304285,13.296857897621623,EDEKA Busack,52.53937071309805,13.299573819732196,Supermarket
567,Barstraße,52.485198755517494,13.314403380151296,Bahadur,52.48779080041393,13.319594974738457,Indian Restaurant
568,Barstraße,52.485198755517494,13.314403380151296,EVA Lichtspiele,52.48464151811313,13.320160541709342,Indie Movie Theater
569,Barstraße,52.485198755517494,13.314403380151296,Yoshioka,52.487989721940565,13.317926134259867,Japanese Restaurant
570,Barstraße,52.485198755517494,13.314403380151296,Tegernseer Tönnchen,52.486439541927645,13.31753238293806,Bavarian Restaurant
571,Barstraße,52.485198755517494,13.314403380151296,Back-Art 132,52.486433610055,13.321500226419456,Bakery
572,Barstraße,52.485198755517494,13.314403380151296,Istanbul Grill,52.486741701588656,13.320035683184551,Doner Restaurant
573,Barstraße,52.485198755517494,13.314403380151296,La Mia Toscana,52.48208670761737,13.31670713079665,Italian Restaurant
574,Barstraße,52.485198755517494,13.314403380151296,Aral Tankstelle,52.48411060739531,13.32050402993326,Gas Station
575,Barstraße,52.485198755517494,13.314403380151296,Monheim,52.48514046140478,13.320466553424968,Ice Cream Shop
576,Barstraße,52.485198755517494,13.314403380151296,Boulderworx,52.48688055342877,13.318214828154577,Climbing Gym
577,Barstraße,52.485198755517494,13.314403380151296,Tulum,52.4830587748448,13.320454716849786,Mexican Restaurant
578,Barstraße,52.485198755517494,13.314403380151296,enjoy hotel Berlin City Messe,52.4843407926377,13.308096955788326,Hotel
579,Barstraße,52.485198755517494,13.314403380151296,Ibis Berlin City West,52.48911863352239,13.316606958228704,Hotel
580,Barstraße,52.485198755517494,13.314403380151296,Stadtbad Wilmersdorf I,52.48098077283274,13.31439455529988,Hot Spring
581,Barstraße,52.485198755517494,13.314403380151296,Heidelberger Platz,52.48096205136068,13.312152292283908,Plaza
582,Barstraße,52.485198755517494,13.314403380151296,Bus Tour Thomas More,52.48409388037996,13.308222283399846,Moving Target
583,Prenzlauer Berg Ost,52.5345029082308,13.45232501411891,Mensch Meier,52.53529166859128,13.452162767054602,Nightclub
584,Prenzlauer Berg Ost,52.5345029082308,13.45232501411891,Anomalie,52.535529081233776,13.453080654144287,Nightclub
585,Prenzlauer Berg Ost,52.5345029082308,13.45232501411891,Lasertag Berlin,52.53243547862091,13.453697461307456,Laser Tag
586,Prenzlauer Berg Ost,52.5345029082308,13.45232501411891,Sportanlage Paul-Heyse-Straße,52.532513955470336,13.44820976257324,Soccer Field
587,Prenzlauer Berg Ost,52.5345029082308,13.45232501411891,Velodrom,52.530934521253315,13.45100998878479,Stadium
588,Prenzlauer Berg Ost,52.5345029082308,13.45232501411891,Kaufland,52.533476548793374,13.456580609767624,Big Box Store
589,Prenzlauer Berg Ost,52.5345029082308,13.45232501411891,Lidl,52.53433480293345,13.445665687322617,Supermarket
590,Prenzlauer Berg Ost,52.5345029082308,13.45232501411891,BowlHouse,52.53625216466172,13.451098781364355,Bowling Alley
591,Prenzlauer Berg Ost,52.5345029082308,13.45232501411891,A.T.U Berlin - Prenzlauer Berg,52.533603,13.454247,Automotive Shop
592,Prenzlauer Berg Ost,52.5345029082308,13.45232501411891,Dörbandt Frauen-Fitness-Studio (Vital Ladys),52.5325226633842,13.453751580964894,Gym / Fitness Center
593,Prenzlauer Berg Ost,52.5345029082308,13.45232501411891,H Stedingerweg,52.538952754362086,13.451833946336354,Bus Stop
594,Prenzlauer Berg Südwest,52.53491071810501,13.413832817071741,Weinladen Schmidt,52.534699796594396,13.416316645041784,Wine Shop
595,Prenzlauer Berg Südwest,52.53491071810501,13.413832817071741,Zuhause,52.53333251564153,13.414803081061542,Deli / Bodega
596,Prenzlauer Berg Südwest,52.53491071810501,13.413832817071741,Le Belfort,52.533332,13.415582,Bistro
597,Prenzlauer Berg Südwest,52.53491071810501,13.413832817071741,EastSeven Berlin Hostel,52.53346187395801,13.41054917570367,Hostel
598,Prenzlauer Berg Südwest,52.53491071810501,13.413832817071741,Baiz,52.536123460533155,13.412716185001498,Bar
599,Prenzlauer Berg Südwest,52.53491071810501,13.413832817071741,MDC Cosmetic,52.53496545839637,13.4178760373489,Cosmetics Shop
600,Prenzlauer Berg Südwest,52.53491071810501,13.413832817071741,Kaffee Käthe,52.53390313900558,13.415436381121081,Café
601,Prenzlauer Berg Südwest,52.53491071810501,13.413832817071741,HERMAN,52.5323916321789,13.412292397754532,Beer Bar
602,Prenzlauer Berg Südwest,52.53491071810501,13.413832817071741,Kollwitzplatz,52.536236,13.417045,Plaza
603,Prenzlauer Berg Südwest,52.53491071810501,13.413832817071741,Park am Wasserturm,52.53387144031121,13.418126106262207,Park
604,Prenzlauer Berg Südwest,52.53491071810501,13.413832817071741,Meierei,52.53414753443321,13.41566360662513,Breakfast Spot
605,Prenzlauer Berg Südwest,52.53491071810501,13.413832817071741,Lucky Leek,52.534924,13.416813,Vegetarian / Vegan Restaurant
606,Prenzlauer Berg Südwest,52.53491071810501,13.413832817071741,Ziervogels Kult-Curry,52.533101929527895,13.412688522627654,Currywurst Joint
607,Prenzlauer Berg Südwest,52.53491071810501,13.413832817071741,Baden im Wein,52.537881,13.411955,Wine Bar
608,Prenzlauer Berg Südwest,52.53491071810501,13.413832817071741,Scotch & Sofa,52.532728,13.414367,Cocktail Bar
609,Prenzlauer Berg Südwest,52.53491071810501,13.413832817071741,Wochenmarkt am Kollwitzplatz,52.53659933582729,13.418276309967041,Farmers Market
610,Prenzlauer Berg Südwest,52.53491071810501,13.413832817071741,Impala Coffee,52.53261870116041,13.412596625183308,Coffee Shop
611,Prenzlauer Berg Südwest,52.53491071810501,13.413832817071741,Lia's Kitchen,52.534462217003664,13.41596345669631,Vegetarian / Vegan Restaurant
612,Prenzlauer Berg Südwest,52.53491071810501,13.413832817071741,Wasserturm,52.53419122630572,13.418587446212769,Historic Site
613,Prenzlauer Berg Südwest,52.53491071810501,13.413832817071741,The Bird Barbecue,52.53774902890648,13.411588377583156,American Restaurant
614,Prenzlauer Berg Südwest,52.53491071810501,13.413832817071741,Hausbar,52.534898,13.418957,Cocktail Bar
615,Prenzlauer Berg Südwest,52.53491071810501,13.413832817071741,colecomp,52.53656700255133,13.416145878901526,Furniture / Home Store
616,Prenzlauer Berg Südwest,52.53491071810501,13.413832817071741,Umami,52.534477,13.419286,Vietnamese Restaurant
617,Prenzlauer Berg Südwest,52.53491071810501,13.413832817071741,Spielplatz am Wasserturm,52.533891019112495,13.418866395950317,Playground
618,Prenzlauer Berg Südwest,52.53491071810501,13.413832817071741,Dock 11,52.536545908552746,13.408585150976046,Indie Theater
619,Prenzlauer Berg Südwest,52.53491071810501,13.413832817071741,MontRaw Restaurant,52.53186,13.415882,Israeli Restaurant
620,Prenzlauer Berg Südwest,52.53491071810501,13.413832817071741,Pasternak,52.53465906029785,13.418682027809362,Russian Restaurant
621,Prenzlauer Berg Südwest,52.53491071810501,13.413832817071741,Süßfein,52.53547083637748,13.419507229773444,Ice Cream Shop
622,Prenzlauer Berg Südwest,52.53491071810501,13.413832817071741,Betty'n Caty,52.534872,13.418119,Breakfast Spot
623,Prenzlauer Berg Südwest,52.53491071810501,13.413832817071741,Zula Hummus Café,52.53753561268995,13.417467407408422,Israeli Restaurant
624,Prenzlauer Berg Süd,52.53408782988755,13.42881053391506,Gilgamesch,52.5347556968551,13.431398049907218,Middle Eastern Restaurant
625,Prenzlauer Berg Süd,52.53408782988755,13.42881053391506,Duc Anh,52.53336652408397,13.428694547588124,Vietnamese Restaurant
626,Prenzlauer Berg Süd,52.53408782988755,13.42881053391506,Zia,52.53430868773753,13.425920851703061,Pizza Place
627,Prenzlauer Berg Süd,52.53408782988755,13.42881053391506,Jubel,52.5325273943382,13.430677683140182,Pastry Shop
628,Prenzlauer Berg Süd,52.53408782988755,13.42881053391506,boesner,52.5328644,13.4259908,Arts & Crafts Store
629,Prenzlauer Berg Süd,52.53408782988755,13.42881053391506,Sorsi e Morsi,52.5346405502197,13.424978739344986,Wine Bar
630,Prenzlauer Berg Süd,52.53408782988755,13.42881053391506,Banh Xeo Saigon,52.53417066026806,13.430935861086638,Vietnamese Restaurant
631,Prenzlauer Berg Süd,52.53408782988755,13.42881053391506,Enzo Sushi Bar,52.534618,13.425019,Sushi Restaurant
632,Prenzlauer Berg Süd,52.53408782988755,13.42881053391506,Omelegg,52.534741872751745,13.425807952880858,Breakfast Spot
633,Prenzlauer Berg Süd,52.53408782988755,13.42881053391506,La Criolla Empanadas,52.534793388813846,13.424606792515412,Empanada Restaurant
634,Prenzlauer Berg Süd,52.53408782988755,13.42881053391506,Burgers Burgers,52.533541,13.430525,Burger Joint
635,Prenzlauer Berg Süd,52.53408782988755,13.42881053391506,Rosa Canina,52.53255311427469,13.430705666542053,Ice Cream Shop
636,Prenzlauer Berg Süd,52.53408782988755,13.42881053391506,100 Brote,52.532895711893815,13.42969720890722,Bakery
637,Prenzlauer Berg Süd,52.53408782988755,13.42881053391506,Weinberg,52.53269995948009,13.424021601676941,Wine Bar
638,Prenzlauer Berg Süd,52.53408782988755,13.42881053391506,Gasthaus Alt Wien,52.531547401763,13.432681681156769,Austrian Restaurant
639,Prenzlauer Berg Süd,52.53408782988755,13.42881053391506,Cinta Café,52.531767620993975,13.432184738568806,Breakfast Spot
640,Prenzlauer Berg Süd,52.53408782988755,13.42881053391506,Musikbrauerei,52.53074758083102,13.428737913119635,Music Venue
641,Prenzlauer Berg Süd,52.53408782988755,13.42881053391506,Café Fruchtbar,52.53175934726176,13.432423635226234,Juice Bar
642,Prenzlauer Berg Süd,52.53408782988755,13.42881053391506,Early Birds,52.53204626343468,13.42362354934389,Ice Cream Shop
643,Prenzlauer Berg Süd,52.53408782988755,13.42881053391506,Satt & Glücklich,52.53280634593438,13.430134825562302,Deli / Bodega
644,Prenzlauer Berg Süd,52.53408782988755,13.42881053391506,Muse,52.532938701483936,13.423114057701246,American Restaurant
645,Prenzlauer Berg Süd,52.53408782988755,13.42881053391506,Le Flaneur,52.531665461121854,13.427539670955786,Wine Shop
646,Prenzlauer Berg Süd,52.53408782988755,13.42881053391506,BUCHBOX!,52.532971415516364,13.42961571084053,Bookstore
647,Prenzlauer Berg Süd,52.53408782988755,13.42881053391506,Dream Baby Dream,52.53110323624463,13.426671624183653,Cocktail Bar
648,Prenzlauer Berg Süd,52.53408782988755,13.42881053391506,Taleh Thai,52.530625768342205,13.431700968683776,Thai Restaurant
649,Prenzlauer Berg Süd,52.53408782988755,13.42881053391506,Cantine Sant' Ambroeus,52.53192786951622,13.432108297571457,Wine Bar
650,Prenzlauer Berg Süd,52.53408782988755,13.42881053391506,FACCE deli,52.53225459229812,13.43129010596695,Café
651,Prenzlauer Berg Süd,52.53408782988755,13.42881053391506,Chili & Paprika,52.53631180359912,13.43246073571716,Gourmet Shop
652,Prenzlauer Berg Süd,52.53408782988755,13.42881053391506,ImmerTreu,52.53644337075163,13.42513315895337,Cocktail Bar
653,Prenzlauer Berg Süd,52.53408782988755,13.42881053391506,Izzy,52.535439654508124,13.434184741250805,Dive Bar
654,Heerstrasse,52.51058389256861,13.240013958931181,Jesse Owens Lounge,52.513903046293585,13.239748477935791,Lounge
655,Heerstrasse,52.51058389256861,13.240013958931181,Der Holländer,52.51310799699027,13.244823573763515,Flower Shop
656,Heerstrasse,52.51058389256861,13.240013958931181,Corbusierhaus,52.51008453402597,13.243923979589495,Building
657,Heerstrasse,52.51058389256861,13.240013958931181,Olympiastadion,52.514849775310154,13.23976993560791,Soccer Stadium
658,Heerstrasse,52.51058389256861,13.240013958931181,Hertha BSC Heimspiel,52.514670282552004,13.24114821644443,Soccer Stadium
659,Heerstrasse,52.51058389256861,13.240013958931181,Olympia-Lounge,52.51396569934586,13.239780061965375,Lounge
660,Heerstrasse,52.51058389256861,13.240013958931181,Preußisches Landwirtshaus,52.510483921977986,13.240585099683573,German Restaurant
661,Heerstrasse,52.51058389256861,13.240013958931181,Stadionterrassen,52.512067043229465,13.239961754351816,Restaurant
662,Heerstrasse,52.51058389256861,13.240013958931181,Gästeblock,52.514189423532535,13.238130693882793,Soccer Stadium
663,Heerstrasse,52.51058389256861,13.240013958931181,Hertha BSC Fanshop,52.51339012347362,13.240594618791542,Sporting Goods Shop
664,Heerstrasse,52.51058389256861,13.240013958931181,Axel Kruse Rondell,52.51287535450386,13.243867693813888,Sculpture Garden
665,Schloß Charlottenburg,52.519843296918445,13.291475591736598,Museum Berggruen,52.51927802378634,13.295374451463491,Art Museum
666,Schloß Charlottenburg,52.519843296918445,13.291475591736598,Schloss Charlottenburg,52.52089530162469,13.29566717147827,Palace
667,Schloß Charlottenburg,52.519843296918445,13.291475591736598,Bröhan-Museum,52.5188062289259,13.2954740524292,Art Museum
668,Schloß Charlottenburg,52.519843296918445,13.291475591736598,Schlossgarten,52.517539680234776,13.296804428100586,German Restaurant
669,Schloß Charlottenburg,52.519843296918445,13.291475591736598,Centro Italia,52.5211771843545,13.285847413283511,Grocery Store
670,Schloß Charlottenburg,52.519843296918445,13.291475591736598,Röstwerk,52.51546892528142,13.291978816007804,Café
671,Schloß Charlottenburg,52.519843296918445,13.291475591736598,Große Orangerie am Schloss Charlottenburg,52.52049078842057,13.293383702937604,Event Space
672,Schloß Charlottenburg,52.519843296918445,13.291475591736598,Brotgarten,52.515477717516596,13.292356279798783,Bakery
673,Schloß Charlottenburg,52.519843296918445,13.291475591736598,Don Camillo,52.516682328723164,13.296239740758699,Italian Restaurant
674,Schloß Charlottenburg,52.519843296918445,13.291475591736598,Sammlung Scharf-Gerstenberg,52.519282338274394,13.297067203388059,Art Museum
675,Schloß Charlottenburg,52.519843296918445,13.291475591736598,BIO COMPANY,52.5176586,13.2932264,Organic Grocery
676,Schloß Charlottenburg,52.519843296918445,13.291475591736598,Omi Rosis Suppen,52.52019779476808,13.286378470592437,Soup Place
677,Schloß Charlottenburg,52.519843296918445,13.291475591736598,Opera Italiana,52.51919203802386,13.298318691734794,Italian Restaurant
678,Schloß Charlottenburg,52.519843296918445,13.291475591736598,Klausenerplatz,52.518676009129756,13.291545623159692,Plaza
679,Schloß Charlottenburg,52.519843296918445,13.291475591736598,Mausoleum der Königin Luise,52.524090654158385,13.291835879350657,Cemetery
680,Schloß Charlottenburg,52.519843296918445,13.291475591736598,Trattoria Fra Diavolo,52.51786611380223,13.293049335479736,Trattoria/Osteria
681,Schloß Charlottenburg,52.519843296918445,13.291475591736598,Eßstube,52.51549945269542,13.292000626025187,German Restaurant
682,Schloß Charlottenburg,52.519843296918445,13.291475591736598,Café Reet,52.51812725890996,13.292684555053711,Café
683,Schloß Charlottenburg,52.519843296918445,13.291475591736598,Rossmann,52.51880116812298,13.287844032173428,Drugstore
684,Schloß Charlottenburg,52.519843296918445,13.291475591736598,Steinecke Bäckerei,52.518635086477104,13.286864395402871,Bakery
685,Schloß Charlottenburg,52.519843296918445,13.291475591736598,Taverna Karagiosis,52.51824746438265,13.292497454717404,Taverna
686,Schloß Charlottenburg,52.519843296918445,13.291475591736598,Zur Linde,52.51674791291405,13.287025138710602,Beer Garden
687,Schloß Charlottenburg,52.519843296918445,13.291475591736598,Kleine Orangerie am Schloss Charlottenburg,52.51986546078823,13.293798443042727,German Restaurant
688,Schloß Charlottenburg,52.519843296918445,13.291475591736598,Kaiser's,52.517750602366,13.290396800196776,Supermarket
689,Schloß Charlottenburg,52.519843296918445,13.291475591736598,Berliner Eismanufaktur,52.51544416971509,13.291221796363455,Ice Cream Shop
690,Schloß Charlottenburg,52.519843296918445,13.291475591736598,Restaurant Charlotte,52.519191,13.298684,Restaurant
691,Schloß Charlottenburg,52.519843296918445,13.291475591736598,Özen Kardeşler Market,52.51559427409635,13.29376656150973,Grocery Store
692,Neue Kantstraße,52.50540516154804,13.293927179675805,Restaurant Mylos,52.50665592481844,13.29586185518644,Greek Restaurant
693,Neue Kantstraße,52.50540516154804,13.293927179675805,Restaurant Bruderherz,52.505409,13.29732,Italian Restaurant
694,Neue Kantstraße,52.50540516154804,13.293927179675805,Bistro La Piadina,52.50524332546432,13.297149747203653,Italian Restaurant
695,Neue Kantstraße,52.50540516154804,13.293927179675805,Osteria Ferrari,52.504822,13.294882,Trattoria/Osteria
696,Neue Kantstraße,52.50540516154804,13.293927179675805,Kim's Ha,52.50677,13.296732,Vietnamese Restaurant
697,Neue Kantstraße,52.50540516154804,13.293927179675805,Feines aus Österreich,52.505482594126384,13.296532270472747,German Restaurant
698,Neue Kantstraße,52.50540516154804,13.293927179675805,de maufel,52.5056485910849,13.296108012331544,Café
699,Neue Kantstraße,52.50540516154804,13.293927179675805,Viet-Frisch,52.506882942099715,13.296460534808906,Vietnamese Restaurant
700,Neue Kantstraße,52.50540516154804,13.293927179675805,Masala,52.50382822039338,13.291889035946289,Indian Restaurant
701,Neue Kantstraße,52.50540516154804,13.293927179675805,Engelbecken,52.508681368405625,13.293996299854804,German Restaurant
702,Neue Kantstraße,52.50540516154804,13.293927179675805,Windback Café,52.50552644887643,13.299626310564486,Café
703,Neue Kantstraße,52.50540516154804,13.293927179675805,Creplala,52.50673327697425,13.295745108539542,Creperie
704,Neue Kantstraße,52.50540516154804,13.293927179675805,Bên Thânh,52.50692662893887,13.297841352574395,Vietnamese Restaurant
705,Neue Kantstraße,52.50540516154804,13.293927179675805,Lietzenseepark,52.50497667424454,13.287041187286377,Park
706,Neue Kantstraße,52.50540516154804,13.293927179675805,Aux Délices Normands,52.506650525238435,13.291369435155955,Bakery
707,Neue Kantstraße,52.50540516154804,13.293927179675805,Salumeria da Pino Puglisi,52.505012,13.300167,Italian Restaurant
708,Neue Kantstraße,52.50540516154804,13.293927179675805,Lamazère,52.50503796880791,13.300587213632856,French Restaurant
709,Neue Kantstraße,52.50540516154804,13.293927179675805,Focaccino,52.505348,13.301255,Italian Restaurant
710,Neue Kantstraße,52.50540516154804,13.293927179675805,Windburger,52.506104498133325,13.299420639496601,Burger Joint
711,Neue Kantstraße,52.50540516154804,13.293927179675805,Insonne,52.505605,13.299947,Café
712,Neue Kantstraße,52.50540516154804,13.293927179675805,Weingalerie - Weine aus PORTugal,52.507923,13.297061,Wine Shop
713,Neue Kantstraße,52.50540516154804,13.293927179675805,Ringhotel Seehof Berlin,52.506933492118385,13.289182771862976,Hotel
714,Neue Kantstraße,52.50540516154804,13.293927179675805,Zen House,52.506839,13.300144,Vegetarian / Vegan Restaurant
715,Neue Kantstraße,52.50540516154804,13.293927179675805,Lotus,52.506851419144446,13.300907989008453,Indian Restaurant
716,Neue Kantstraße,52.50540516154804,13.293927179675805,Antikmeile Suarezstraße,52.50878813299928,13.29643394059165,Antique Shop
717,Neue Kantstraße,52.50540516154804,13.293927179675805,Salumeria Rosa,52.50651132957601,13.291000127792358,Deli / Bodega
718,Neue Kantstraße,52.50540516154804,13.293927179675805,Café Magnifique,52.50145357797107,13.297037230792036,Café
719,Neue Kantstraße,52.50540516154804,13.293927179675805,DOPPIO PAZZO,52.504812945292755,13.298848188957939,Café
720,Neue Kantstraße,52.50540516154804,13.293927179675805,Bootshaus Stella am Lietzensee,52.50871848046555,13.29255974476357,Café
721,Neue Kantstraße,52.50540516154804,13.293927179675805,Netto Marken-Discount,52.5012113,13.2921674,Supermarket
722,Schmargendorf,52.47670930459408,13.294745656156556,Hofladen im Kiez,52.476835656124074,13.290552324044706,Deli / Bodega
723,Schmargendorf,52.47670930459408,13.294745656156556,Eis da Dalt,52.474504310809266,13.293784260749817,Ice Cream Shop
724,Schmargendorf,52.47670930459408,13.294745656156556,Nuovo Mario,52.47727097716936,13.290030076632476,Italian Restaurant
725,Schmargendorf,52.47670930459408,13.294745656156556,JoCaffè Rösterei,52.47678777564289,13.290627732400011,Coffee Shop
726,Schmargendorf,52.47670930459408,13.294745656156556,Dschunke,52.47468,13.293508,Chinese Restaurant
727,Schmargendorf,52.47670930459408,13.294745656156556,Da Antonello,52.47507235146681,13.291605169343462,Italian Restaurant
728,Schmargendorf,52.47670930459408,13.294745656156556,I Scream,52.47518973730828,13.290095538807467,Ice Cream Shop
729,Schmargendorf,52.47670930459408,13.294745656156556,Rossmann,52.475277,13.290125,Drugstore
730,Schmargendorf,52.47670930459408,13.294745656156556,Deutsche Bank SB-Stelle,52.474268238444736,13.29329464112186,Bank
731,Schmargendorf,52.47670930459408,13.294745656156556,Coffee Oase,52.47481020871978,13.292175887527808,Café
732,Schmargendorf,52.47670930459408,13.294745656156556,Wochenmarkt Schmargendorf,52.476800179382096,13.290637538735725,Farmers Market
733,Schmargendorf,52.47670930459408,13.294745656156556,Sofra Grill,52.475371899779546,13.291085260970336,BBQ Joint
734,Schmargendorf,52.47670930459408,13.294745656156556,Deutsche Bank SB-Stelle,52.474189,13.293184,ATM
735,Schmargendorf,52.47670930459408,13.294745656156556,Bäckerei Mälzer,52.4752296606682,13.291027729864604,Bakery
736,Schmargendorf,52.47670930459408,13.294745656156556,Looms,52.47706417072388,13.288147842437526,Café
737,Schmargendorf,52.47670930459408,13.294745656156556,Kolberger Platz 5,52.47682738186557,13.28993312170871,Plaza
738,Schmargendorf,52.47670930459408,13.294745656156556,dm-drogerie markt,52.476039881571744,13.289808799925819,Drugstore
739,Schmargendorf,52.47670930459408,13.294745656156556,clever fit,52.476524189623696,13.289002055391936,Gym
740,Schmargendorf,52.47670930459408,13.294745656156556,Marende,52.47320040069077,13.2986848216446,German Restaurant
741,Schmargendorf,52.47670930459408,13.294745656156556,ALDI NORD,52.47338455797543,13.290326028418425,Supermarket
742,Düsseldorfer Straße,52.495015537035094,13.316013463880994,Thaiwiese im Preußenpark,52.493177777374655,13.31206873172159,Street Food Gathering
743,Düsseldorfer Straße,52.495015537035094,13.316013463880994,Nata de Lisboa,52.49862611564884,13.316698925490817,Portuguese Restaurant
744,Düsseldorfer Straße,52.495015537035094,13.316013463880994,ZUKA,52.497434427228406,13.320355248219334,Dessert Shop
745,Düsseldorfer Straße,52.495015537035094,13.316013463880994,Maître Philippe,52.497374746215776,13.32023027527773,Gourmet Shop
746,Düsseldorfer Straße,52.495015537035094,13.316013463880994,BäckerMann,52.49837514519333,13.317846621563133,Bakery
747,Düsseldorfer Straße,52.495015537035094,13.316013463880994,Gusto,52.4969649238186,13.312799365977831,Italian Restaurant
748,Düsseldorfer Straße,52.495015537035094,13.316013463880994,Preußenpark,52.49274801972638,13.31295132637024,Park
749,Düsseldorfer Straße,52.495015537035094,13.316013463880994,Freni & Frizioni,52.49819283994478,13.318780205220385,Italian Restaurant
750,Düsseldorfer Straße,52.495015537035094,13.316013463880994,Taniel Beauty Club,52.49862224777032,13.316942388747902,Health & Beauty Service
751,Düsseldorfer Straße,52.495015537035094,13.316013463880994,Restaurant  Zum Hax'nwirt,52.49152434969363,13.317789540479223,German Restaurant
752,Düsseldorfer Straße,52.495015537035094,13.316013463880994,Die gute Stube,52.493399408770166,13.32171142532367,German Restaurant
753,Düsseldorfer Straße,52.495015537035094,13.316013463880994,Café Menta,52.497221811306815,13.32019640214895,Bar
754,Düsseldorfer Straße,52.495015537035094,13.316013463880994,Nan Spa,52.49426760256519,13.322007822380952,Spa
755,Düsseldorfer Straße,52.495015537035094,13.316013463880994,Backshop e' Cafe,52.499173355795214,13.313899261469013,Bakery
756,Düsseldorfer Straße,52.495015537035094,13.316013463880994,Mr. Hai Shabuki,52.49887457937958,13.31639078668747,Sushi Restaurant
757,Düsseldorfer Straße,52.495015537035094,13.316013463880994,Taberna de Bellas Artes,52.49630947595289,13.32253337529159,Tapas Restaurant
758,Düsseldorfer Straße,52.495015537035094,13.316013463880994,Paracas,52.491891,13.321121,Latin American Restaurant
759,Düsseldorfer Straße,52.495015537035094,13.316013463880994,Olivaer Platz,52.49937309472746,13.314635753631592,Plaza
760,Düsseldorfer Straße,52.495015537035094,13.316013463880994,REWE City,52.49561560411054,13.311273407986619,Supermarket
761,Düsseldorfer Straße,52.495015537035094,13.316013463880994,Georgios,52.4967855,13.313759,Greek Restaurant
762,Düsseldorfer Straße,52.495015537035094,13.316013463880994,Rico Falafel,52.498173,13.317832,Falafel Restaurant
763,Düsseldorfer Straße,52.495015537035094,13.316013463880994,Pho 56,52.498973782514604,13.314508593134018,Vietnamese Restaurant
764,Düsseldorfer Straße,52.495015537035094,13.316013463880994,Restaurant Lychee,52.49687070019676,13.313494697909848,Chinese Restaurant
765,Düsseldorfer Straße,52.495015537035094,13.316013463880994,TTP Sushi,52.498992527605026,13.315205665043964,Sushi Restaurant
766,Düsseldorfer Straße,52.495015537035094,13.316013463880994,flying chicken,52.4988597521048,13.312373582014372,Wings Joint
767,Düsseldorfer Straße,52.495015537035094,13.316013463880994,Hotel Wittelsbach,52.49520293380716,13.310243009321146,Hotel
768,Düsseldorfer Straße,52.495015537035094,13.316013463880994,Vogelweide,52.498345,13.314555,German Restaurant
769,Düsseldorfer Straße,52.495015537035094,13.316013463880994,Cafe Sidney,52.49826331071216,13.318327168973749,Restaurant
770,Düsseldorfer Straße,52.495015537035094,13.316013463880994,Hotel Bellevue,52.496128015851475,13.320126877135701,Hotel
771,Düsseldorfer Straße,52.495015537035094,13.316013463880994,Hotel Pension Kleist,52.49762734154001,13.317613645595538,Hotel
772,Brunsbütteler Damm,52.53562000388394,13.149290282734967,Hasir Restaurant,52.53902844404871,13.146437179006977,Turkish Restaurant
773,Brunsbütteler Damm,52.53562000388394,13.149290282734967,Rossmann,52.5327967683392,13.154802203353,Drugstore
774,Brunsbütteler Damm,52.53562000388394,13.149290282734967,Pizzeria Staaken,52.53508796368009,13.1503276582932,Italian Restaurant
775,Brunsbütteler Damm,52.53562000388394,13.149290282734967,H Zweiwinkelweg,52.5327724555517,13.148028704268803,Bus Stop
776,Brunsbütteler Damm,52.53562000388394,13.149290282734967,H Louise-Schroeder-Siedlung,52.53285832033965,13.15233207154023,Bus Stop
777,Brunsbütteler Damm,52.53562000388394,13.149290282734967,Netto Marken-Discount,52.53242516,13.14711469,Supermarket
778,Brunsbütteler Damm,52.53562000388394,13.149290282734967,Thoben's Backwaren,52.53315722129706,13.15447924101549,Bakery
779,Heerstraße Nord,52.518122758643614,13.15669500468497,Hahneberg,52.51809976365255,13.1501015314598,Mountain
780,Heerstraße Nord,52.518122758643614,13.15669500468497,Rossmann,52.522254350194665,13.157936486110676,Drugstore
781,Heerstraße Nord,52.518122758643614,13.15669500468497,H Reimerweg,52.52200589490209,13.154635176951931,Bus Stop
782,Schloßstr.,52.46067382527772,13.316149160967768,Jungbluth,52.460309786703384,13.316993063881627,German Restaurant
783,Schloßstr.,52.46067382527772,13.316149160967768,Gamer's HQ,52.462965099442016,13.319635391235352,Toy / Game Store
784,Schloßstr.,52.46067382527772,13.316149160967768,Dokmai,52.46008420030741,13.317480758091174,Thai Restaurant
785,Schloßstr.,52.46067382527772,13.316149160967768,General Post Office,52.46112462722424,13.31792618309183,Pub
786,Schloßstr.,52.46067382527772,13.316149160967768,Café Baier,52.45944748222248,13.32310672132395,Café
787,Schloßstr.,52.46067382527772,13.316149160967768,Eisfee,52.46434825431872,13.314114174667885,Ice Cream Shop
788,Schloßstr.,52.46067382527772,13.316149160967768,Akiko Sushi,52.4606312606575,13.323383107999069,Sushi Restaurant
789,Schloßstr.,52.46067382527772,13.316149160967768,zur Bratpfanne,52.45896536941145,13.322867632335917,Currywurst Joint
790,Schloßstr.,52.46067382527772,13.316149160967768,Café Cocosh,52.459008,13.320795,Indoor Play Area
791,Schloßstr.,52.46067382527772,13.316149160967768,Hee Lam Mun,52.45986508537131,13.312032758818013,Chinese Restaurant
792,Hakenfelde,52.575009822790825,13.183630734093393,Kuhlake,52.57353322717014,13.178400993347168,Lake
793,Wilhelmstadt,52.51754530882772,13.197983773991002,Südpark,52.51653424960838,13.191833496093748,Park
794,Wilhelmstadt,52.51754530882772,13.197983773991002,Steakhouse Buenos Aires,52.518010187203586,13.197613025148355,Argentinian Restaurant
795,Wilhelmstadt,52.51754530882772,13.197983773991002,PENNY,52.51964380422203,13.197465998886969,Supermarket
796,Wilhelmstadt,52.51754530882772,13.197983773991002,Mona Lisa Pizzeria,52.5209536849151,13.197902313680954,Pizza Place
797,Wilhelmstadt,52.51754530882772,13.197983773991002,İnan kiosk,52.52104318315673,13.198096070456765,Convenience Store
798,Wilhelmstadt,52.51754530882772,13.197983773991002,Mydonose,52.521023,13.193869,Halal Restaurant
799,Albrechtstr.,52.453018685218204,13.338976660071818,Krasselt's Imbiss,52.451033897672175,13.339657404425962,Currywurst Joint
800,Albrechtstr.,52.453018685218204,13.338976660071818,ALDI NORD,52.456156922251935,13.338062822701914,Supermarket
801,Albrechtstr.,52.453018685218204,13.338976660071818,LPG BioMarkt,52.45241025408888,13.332194525655748,Organic Grocery
802,Albrechtstr.,52.453018685218204,13.338976660071818,Chopsticks - Die Vielfalt Asiens,52.45663058827576,13.338907775762403,Thai Restaurant
803,Albrechtstr.,52.453018685218204,13.338976660071818,Kebap House,52.45097690112631,13.338461488671657,Turkish Restaurant
804,Albrechtstr.,52.453018685218204,13.338976660071818,Sichuan,52.45208774083443,13.333673086790037,Chinese Restaurant
805,Albrechtstr.,52.453018685218204,13.338976660071818,Elias Gyrosland,52.45125838473226,13.338046337445705,Greek Restaurant
806,Albrechtstr.,52.453018685218204,13.338976660071818,Bus H Selerweg,52.45458567259341,13.338958124925341,Bus Stop
807,Albrechtstr.,52.453018685218204,13.338976660071818,EDEKA Gäth,52.450927898029214,13.339836302460732,Supermarket
808,Albrechtstr.,52.453018685218204,13.338976660071818,H Steglitzer Damm / Bismarckstraße,52.451170241786926,13.338017147880569,Bus Stop
809,Albrechtstr.,52.453018685218204,13.338976660071818,A.T.U Berlin - Steglitz,52.454842,13.337657,Automotive Shop
810,Albrechtstr.,52.453018685218204,13.338976660071818,PENNY,52.45075030585401,13.339173101275492,Supermarket
811,Albrechtstr.,52.453018685218204,13.338976660071818,La Focaccia,52.45099600099015,13.341334843026457,Italian Restaurant
812,Albrechtstr.,52.453018685218204,13.338976660071818,Kaiser's,52.45607696424543,13.337938299064422,Supermarket
813,Albrechtstr.,52.453018685218204,13.338976660071818,Pressefachgeschäft Iwan,52.45038,13.34189,Miscellaneous Shop
814,Albrechtstr.,52.453018685218204,13.338976660071818,Sandwiches & Coffee,52.452313917712125,13.333067254892184,Sandwich Place
815,Albrechtstr.,52.453018685218204,13.338976660071818,Sochos-Sporthalle,52.456197495092105,13.335420158490924,Gym
816,Albrechtstr.,52.453018685218204,13.338976660071818,Sportanlage SSC Südwest,52.45635967989895,13.335800578955768,Soccer Field
817,Albrechtstr.,52.453018685218204,13.338976660071818,H Neue Filandastraße,52.45286633897423,13.332268253624608,Bus Stop
818,Albrechtstr.,52.453018685218204,13.338976660071818,Sporthalle Wilhelm-Ostwald-Schule,52.452324684164495,13.345753846424177,Gym
819,Albrechtstr.,52.453018685218204,13.338976660071818,Burda's,52.44868568851426,13.339126418783298,Restaurant
820,Siemensstadt,52.53921217928363,13.257518784900181,BMW Autohaus Nefzger,52.53733392527038,13.257120893653365,Auto Dealership
821,Siemensstadt,52.53921217928363,13.257518784900181,BabyOne,52.53902734704677,13.250416346133532,Baby Store
822,Siemensstadt,52.53921217928363,13.257518784900181,Il Faggio,52.540593508087895,13.262470152912972,Restaurant
823,Siemensstadt,52.53921217928363,13.257518784900181,Intermezzo Bar,52.540648113459305,13.262540406374491,Hotel Bar
824,Siemensstadt,52.53921217928363,13.257518784900181,SUBWAY,52.53895859638595,13.250606279762223,Sandwich Place
825,Siemensstadt,52.53921217928363,13.257518784900181,Holiday Inn Berlin - City West,52.5403955925613,13.262013494968414,Hotel
826,Siemensstadt,52.53921217928363,13.257518784900181,SB Möbel Boss,52.539288177606124,13.251057557088604,Furniture / Home Store
